Timestamps,Roll_N,Pitch_E,Yaw_U,Latitude,Longitude,Altitude
1679940782.635881,-0.79,-2.32,-86.03,12.787010193,80.187934875,9.81
1679940783.30238,-0.7899802716487949,-2.3200023058242434,-85.99796872949732,12.787010193055288,80.18793487512139,9.809974566700188
1679940783.969012,-0.7899934783693727,-2.3199989099374916,-85.9903482727838,12.78701019307089,80.18793487504301,9.810002541782524
1679940785.302065,-0.7900001099040106,-2.3199992621263386,-86.0736303346181,12.78701019302493,80.18793487490588,9.81002724976811
1679940785.968296,-0.7899975223356214,-2.320003117550224,-86.12745354125659,12.787010192890872,80.18793487472612,9.810043283411474
1679940786.634787,-0.7899962687301877,-2.320001864941908,-86.10288460491043,12.787010192848545,80.18793487462987,9.810070245035446
1679940787.301346,-0.7900050229449659,-2.3200062947183695,-86.08572663543201,12.78701019274205,80.18793487448409,9.810091890281683
1679940788.301226,-0.7899969789291722,-2.3200022671105582,-86.09806712246748,12.787010192695886,80.18793487437262,9.810118070740709
1679940790.300982,-0.7899911014767291,-2.320000591140469,-86.1129367521703,12.787010192624656,80.18793487424406,9.810142586897273
1679940791.967313,-0.7899778418316697,-2.3199989370957153,-86.12754444722796,12.787010192534925,80.18793487410456,9.810165609311145
1679940793.300545,-0.789968375668781,-2.3199968447491655,-86.12512929598238,12.787010192458489,80.18793487397981,9.810190163445743
1679940793.967128,-0.7899761593247231,-2.3199970904975955,-86.11293396415677,12.787010192372817,80.18793487384977,9.810214012783712
1679940796.633377,-0.7899580403265579,-2.3199927793606716,-86.1296224931101,12.787010192300066,80.18793487372217,9.81023853262471
1679940796.966656,-0.7899596549678225,-2.3199871558003,-86.12624383334723,12.787010192321587,80.18793487367743,9.810267319378092
1679940798.63311,-0.7899493001575472,-2.3200000822108646,-86.14469820703069,12.787010192184544,80.18793487350827,9.810284370164254
1679940798.96635,-0.7899461893039897,-2.3199965332247197,-86.15252471428654,12.787010192141938,80.18793487341125,9.810311292747372
1679940799.632905,-0.7899417882510886,-2.320006693481888,-86.15339829630753,12.787010191962365,80.18793487322867,9.81031967580655
1679940800.632885,-0.7899413271411786,-2.320005805059792,-86.13979966196469,12.787010191878688,80.18793487310475,9.810343991135554
1679940802.299201,-0.789934960616033,-2.3200042413747597,-86.17160558451373,12.787010191796185,80.18793487297137,9.810367758449726
1679940802.632595,-0.7899260016778441,-2.319999552290723,-86.17933261291171,12.787010191847374,80.18793487296486,9.81039648792687
1679940803.299059,-0.7899229287976158,-2.3199986179345076,-86.17034863532042,12.787010191762565,80.18793487284357,9.81042091028489
1679940803.632416,-0.7899230843237651,-2.319998364932818,-86.16639640716747,12.787010191669562,80.18793487271378,9.8104444359142
1679940803.965646,-0.7899273572152383,-2.3199998689806645,-86.16456543213144,12.787010191564569,80.18793487257435,9.810466658979273
1679940804.965434,-0.7899304626545673,-2.320002846506017,-86.17074314561526,12.787010191453998,80.18793487242905,9.810488094966262
1679940806.298652,-0.7899192378250625,-2.319999162414103,-86.17373436074043,12.78701019137402,80.1879348723079,9.81051272552071
1679940808.631746,-0.7899037995204172,-2.3200004895125668,-86.19333728951608,12.787010191262318,80.18793487216017,9.810533889625924
1679940809.298246,-0.7898979889039061,-2.320002610673165,-86.20146132733578,12.78701019113137,80.18793487200396,9.810552873118016
1679940809.631587,-0.7898969432364625,-2.320000446019541,-86.19958425394012,12.787010191095368,80.18793487192528,9.810580605555732
1679940810.298022,-0.7898923418545483,-2.319998920366635,-86.19962762348347,12.787010191015845,80.18793487181004,9.810605587600266
1679940810.96463,-0.7898900667341159,-2.3199999585442197,-86.21589000086254,12.787010190900824,80.18793487166415,9.810626684728607
1679940811.297917,-0.7898877103308563,-2.3199980024078997,-86.22497240228053,12.787010190819563,80.18793487154888,9.81065159419232
1679940811.631275,-0.7898872368589638,-2.31999642770582,-86.22688882349014,12.787010190759206,80.18793487145395,9.810678185388719
1679940812.297761,-3.873407522405352,-2.3030067199664237,-86.80824938408809,12.787010190864434,80.18793487140633,9.810651809055514
1679940812.964354,-3.8734081086243553,-2.3030129449484544,-86.80864858562848,12.787010191072747,80.18793487156996,9.810648460791661
1679940813.630952,-3.873394910859678,-2.3030091077097055,-86.80986897640442,12.787010191251024,80.18793487165428,9.81062883432031
1679940815.297344,-3.87339297482411,-2.3030059724878407,-86.83284321274212,12.787010191447067,80.18793487177686,9.810614326896784
1679940820.629915,-3.8733570363855283,-2.3030047815543546,-86.8610905639681,12.78701019165005,80.18793487191336,9.810602745585717
1679940822.296445,-3.8733515673603343,-2.3029980066433144,-86.8626196272714,12.787010191844963,80.18793487201057,9.810585965071006
1679940822.62966,-3.873350489167672,-2.3030011421903978,-86.87014698248697,12.787010192048356,80.18793487218305,9.810586949736654
1679940822.962942,-3.873346365277769,-2.3030018045364344,-86.88013778732022,12.78701019225878,80.18793487234264,9.810582968400304
1679940823.962715,-3.8733376355105746,-2.3029986902468824,-86.89289445498011,12.78701019246124,80.18793487245438,9.810568507541095
1679940824.629351,-3.87333406028368,-2.3029972095301487,-86.88363977168389,12.78701019266931,80.18793487256534,9.81055498094419
1679940825.296127,-3.8733347357979464,-2.3029992887640445,-86.87818631104825,12.78701019288312,80.18793487270162,9.810546060169852
1679940825.629203,-3.87333037732542,-2.3029993924633234,-86.881072119935,12.787010193094245,80.18793487283409,9.810535787181562
1679940826.295798,-3.873324488535539,-2.30299992012818,-86.89999895368894,12.78701019330504,80.18793487298106,9.810528072654366
1679940826.629044,-3.8733202892006706,-2.302997601236067,-86.90524396961237,12.787010193501253,80.18793487307117,9.810511012322165
1679940826.96236,-3.873316296435666,-2.302998999476841,-86.90743091884295,12.787010193704571,80.18793487324288,9.810513121159627
1679940827.295744,-3.87331521731476,-2.302999621526709,-86.90335632893239,12.787010193919901,80.18793487337818,9.810504474444235
1679940830.961774,-3.873299157996005,-2.3029939788026113,-86.91633637163243,12.787010194128355,80.18793487349842,9.810491995341636
1679940831.295047,-3.8732908564387634,-2.302993165103103,-86.92153829542376,12.78701019434339,80.18793487364039,9.810484610230112
1679940831.961668,-3.87327476844883,-2.302990340955692,-86.94095022377336,12.78701019455636,80.18793487377822,9.81047572501832
1679940832.294892,-3.8732742766908403,-2.30298981840599,-86.95904940154533,12.787010194771144,80.18793487391702,9.810467582529654
1679940832.628269,-3.873273818891934,-2.3029907747827965,-86.96017485067954,12.787010194988799,80.18793487406359,9.810462589705985
1679940832.961566,-3.873275186912307,-2.302989225225754,-86.94744190755156,12.78701019517142,80.18793487411047,9.810442000797995
1679940833.294794,-3.8732747721970253,-2.302985366530111,-86.93461630784867,12.787010195327765,80.18793487412748,9.810418434053723
1679940833.961365,-3.8732765757363556,-2.3029886463543856,-86.95305147523749,12.787010195541821,80.18793487427709,9.81041266496696
1679940834.961269,-3.8732561730895645,-2.3029851666621943,-86.97427012475634,12.787010195757043,80.18793487441863,9.810405257935617
1679940835.294469,-3.873258191242336,-2.3029856792197285,-86.95983423593479,12.787010195973863,80.1879348745248,9.81039302132304
1679940836.627669,-3.8732474746142134,-2.3029883659016184,-86.95631834419075,12.787010196192458,80.1879348746687,9.8103876275657
1679940838.294041,-3.8732373748760462,-2.3029852976155754,-87.00718145238328,12.787010196402667,80.18793487480109,9.8103771109215
1679940840.627102,-3.873221132621514,-2.302986628991874,-87.02431154506954,12.787010196621917,80.18793487494037,9.810370708659176
1679940841.960211,-3.8732290308827118,-2.3029767686601064,-86.97045720703302,12.787010196828973,80.18793487499575,9.810353471751002
1679940842.626754,-6.957959850294094,-2.3083221539773318,-86.84460727759357,12.787010196618535,80.18793487514336,9.810361157588547
1679940842.960133,-6.957954830823959,-2.308323644745781,-86.87523095864938,12.787010196428493,80.18793487495942,9.810357024372253
1679940843.293344,-10.042840253198133,-2.358921057949749,-85.43938978224813,12.787010196270254,80.18793487474782,9.810361891074825
1679940843.6267,-10.042835193646416,-2.3589179132509193,-85.43405586778266,12.787010196081157,80.18793487478818,9.810341861698753
1679940844.626483,-10.042842875931896,-2.3589131874769653,-85.39637230019258,12.787010195916778,80.18793487486019,9.810320271757709
1679940845.293087,-10.042837531676959,-2.358918763501526,-85.41584709991145,12.787010195936542,80.18793487504146,9.810298690609075
1679940845.626357,-10.042833160362193,-2.358920022575903,-85.4363622888715,12.78701019594867,80.18793487521948,9.810276723419095
1679940846.959464,-10.04283032223161,-2.358917541189135,-85.4337356253542,12.78701019582226,80.18793487532118,9.810253474676474
1679940848.29269,-10.042821947919043,-2.358913191806425,-85.43027742736477,12.787010195679102,80.18793487540958,9.810230780976177
1679940848.625904,-10.042817664438056,-2.3589135698808907,-85.44192671218984,12.787010195614286,80.1879348755527,9.810207009771442
1679940848.959241,-10.042813386425697,-2.358911658083441,-85.4505680476016,12.787010195454314,80.18793487562297,9.810184953034204
1679940849.292442,-10.042814345896552,-2.3589127283031877,-85.45593256033045,12.787010195382955,80.18793487575981,9.810160975655622
1679940849.959052,-10.042811726936135,-2.3589141544917243,-85.44385809065433,12.787010195302486,80.18793487589052,9.810136950443779
1679940851.292196,-10.042806977213177,-2.3589094576275187,-85.43483024126283,12.787010195151108,80.18793487597017,9.81011452979114
1679940851.62548,-10.042804901937036,-2.3589078695822447,-85.444513273463,12.787010195018695,80.18793487606662,9.810091427272983
1679940852.958649,-10.042825277741922,-2.3589116372638474,-85.50772263055387,12.787010194912673,80.18793487618048,9.810067602734104
1679940855.291673,-10.042819722198226,-2.3589143882881713,-85.56569744475954,12.78701019487245,80.18793487632985,9.810043620608269
1679940856.291527,-6.927503793708956,-2.368320879874656,-86.17936734834585,12.78701019495775,80.18793487647001,9.810066802425547
