Timestamps,Roll_N,Pitch_E,Yaw_U,Latitude,Longitude,Altitude
1679940869.51745,-0.1,-0.91,-94.1,12.790902138,80.188316345,9.35
1679940869.85078,-0.09998598230001661,-0.9100009896434945,-94.08058364369421,12.79090213826308,80.18831634498414,9.349997172362968
1679940870.517289,-0.09997274155964737,-0.9099942529988689,-94.07800173028134,12.790902138519844,80.18831634492598,9.35000052259788
1679940871.183667,-0.09995683205699105,-0.9099923356451993,-94.07182427523843,12.790902138783007,80.18831634489973,9.34999901648139
1679940872.183317,-0.09996731800362299,-0.9100054466584642,-94.06362079958,12.790902139000915,80.18831634497144,9.349984313029077
1679940873.51659,-0.09998604882441176,-0.909986792202954,-94.01527450861343,12.79090213916038,80.18831634482127,9.350001074554793
1679940874.183096,-0.09997743049436374,-0.9099949355507638,-94.03022577673023,12.790902139388127,80.18831634487792,9.349987461734326
1679940877.516065,-0.10001538899613262,-0.9100047991678216,-94.00058019088873,12.790902139649457,80.18831634485097,9.349983776325208
1679940877.849302,-0.10001516960684163,-0.910004351919038,-93.99872411773465,12.790902139910779,80.18831634482721,9.349979832110195
1679940878.515793,-0.10001936794968393,-0.910005298709938,-94.00809281140187,12.790902140171186,80.18831634481434,9.349974725590727
1679940880.515602,-0.1000308824183672,-0.9100099370185248,-93.97648916870496,12.790902140431754,80.18831634478589,9.349970544489622
1679940880.848757,-0.10002863917475129,-0.9100086075407029,-93.96988694444676,12.790902140691886,80.1883163447367,9.349969409966617
1679940883.515072,-0.10005389550453503,-0.9100103895552631,-93.96234635222979,12.790902140952609,80.18831634469916,9.349966334698856
1679940884.181613,-0.1000491538296084,-0.9100085839408424,-93.95894042412725,12.790902141213268,80.18831634466103,9.349963290246464
1679940885.514776,-0.10005274939047006,-0.9100141415028965,-93.95421769323247,12.790902141465226,80.18831634466471,9.349954297747972
1679940886.18134,-0.10006035913612121,-0.9100129778502062,-93.93852918476775,12.790902141720304,80.18831634459332,9.34995555450151
1679940886.848024,-0.10006583273759033,-0.9100133699483955,-93.93172280351149,12.79090214198013,80.1883163445529,9.34995202481138
1679940888.18111,3.0196504255112555,-0.911374491579358,-94.00804565172521,12.790902142231527,80.18831634458554,9.349943542349706
1679940888.847674,3.0196434009569217,-0.9113751973199162,-93.99152756896983,12.790902141970909,80.18831634463233,9.349944498377253
1679940890.514122,3.019646352468596,-0.9113735002829906,-94.02816352455193,12.790902141709417,80.18831634464439,9.349948902773184
1679940892.513828,3.019626001833059,-0.9113814934793103,-93.99613903870097,12.790902141448552,80.18831634466787,9.349953215650858
1679940893.180358,3.0196290332023326,-0.9113808557573602,-93.97705970250706,12.790902141187892,80.18831634471249,9.34995493380281
1679940895.513423,3.019612680168306,-0.9113801404313332,-93.99146483466697,12.790902140926264,80.18831634474846,9.349957163756454
1679940896.513257,3.019607383791446,-0.9113836425706338,-93.95781768304617,12.790902140665944,80.18831634478497,9.349960757441123
1679940897.513062,3.0196036727811335,-0.9113836112981967,-93.95994686754409,12.79090214040604,80.18831634480946,9.349965673896484
1679940898.846205,3.0195963219132795,-0.9113869229540511,-93.96449822543534,12.79090214015007,80.18831634481452,9.349973143157476
1679940899.512805,3.0195905955064286,-0.9113866882917696,-93.94683975770819,12.790902139892074,80.18831634487515,9.349973321756028
1679940899.845969,6.041908428713847,-0.8710929199387962,-93.2769127214137,12.790902139652967,80.18831634499095,9.34997374097661
1679940900.179433,6.0419072695310945,-0.8710944785555673,-93.27185104668908,12.790902139821773,80.18831634496874,9.349951302687554
1679940900.51273,6.041905314658127,-0.8710975500382938,-93.28199258959874,12.790902139934827,80.1883163450033,9.349925084385658
1679940901.179234,6.04191079658783,-0.8711002802828466,-93.29525196122242,12.7909021400898,80.18831634500084,9.349901334946107
1679940902.512305,6.041892959743907,-0.8710960922791489,-93.27465698197868,12.790902140311259,80.18831634488389,9.349891512695825
1679940903.845487,6.04189414525248,-0.871099590259267,-93.27434704182207,12.790902140489319,80.18831634485086,9.349870133572768
1679940905.178571,6.041888341673834,-0.8710976985446601,-93.23090527783022,12.790902140696407,80.18831634475866,9.34985487321011
1679940906.511833,6.041871464141163,-0.8710966029180945,-93.23833925994686,12.790902140900304,80.18831634467955,9.34983827881739
1679940906.845094,6.041868006511333,-0.8711002797697195,-93.239724889797,12.7909021410047,80.1883163447139,9.349811620386411
1679940907.17836,6.041863279534013,-0.8711025934039711,-93.237847940736,12.790902141132735,80.18831634472666,9.34978601899573
1679940907.845389,6.041858874185626,-0.8711037055883356,-93.21566879373034,12.790902141318405,80.18831634466888,9.349766101138245
1679940908.178201,6.041856151294161,-0.8711007546488976,-93.21243664862956,12.79090214153646,80.18831634454764,9.349755964519163
1679940908.511555,9.13913083464173,-0.8913091444431388,-94.04926721250787,12.790902141610204,80.18831634460064,9.349728426428946
1679940910.17788,9.13912873192298,-0.8913141247496289,-94.04925671648112,12.790902141347726,80.18831634463412,9.349729681314514
1679940910.844548,9.139118783147383,-0.8913114014837897,-94.04776118287784,12.790902141115158,80.18831634473541,9.349721016466798
1679940911.511071,9.139122097042305,-0.8913203067546122,-94.01979316251767,12.790902140857941,80.18831634473419,9.349727960334834
1679940912.844225,9.139111227400994,-0.8913070451922129,-94.02818116401959,12.790902140674648,80.1883163448735,9.34971319566416
1679940913.510796,12.25856055362986,-0.9100978527835606,-95.39898122419925,12.79090214056848,80.18831634466731,9.349727989932708
1679940913.844155,12.258556373870634,-0.9100994468012147,-95.37962390778482,12.790902140599556,80.18831634460733,9.34975634070525
1679940914.177466,12.25855027596295,-0.9100920907745688,-95.37672536209678,12.790902140391633,80.18831634444551,9.349760832284572
1679940915.177188,12.258556173667323,-0.9100939914008142,-95.37238085286852,12.79090214045824,80.1883163444072,9.349788874498413
1679940915.510431,12.258551622495922,-0.9100957868488077,-95.37461555160208,12.790902140539616,80.18831634437984,9.34981658916457
1679940916.843684,12.258542070694078,-0.9100931707013613,-95.3910049431912,12.790902140557282,80.18831634430553,9.349844679314794
1679940917.176947,12.25854377380923,-0.9100903975874333,-95.39283641804407,12.790902140523777,80.18831634420172,9.349871460027853
1679940917.510176,12.258545016078033,-0.9100936943314555,-95.38294235752835,12.790902140621316,80.18831634419075,9.349898663903621
1679940918.843318,12.258539358790504,-0.9100880231449131,-95.3596841524024,12.790902140594929,80.18831634409216,9.349925773980786
1679940919.509896,12.258533884056975,-0.910091762387233,-95.36262600745123,12.790902140694609,80.1883163440773,9.34995286224124
1679940919.843165,12.25853215876441,-0.9100964541107947,-95.35863184695923,12.790902140876463,80.18831634414238,9.349972945466845
1679940920.17649,12.258529611149182,-0.9100963421054132,-95.34538716497576,12.79090214089859,80.18831634406924,9.350001032737792
1679940920.509727,12.258524806118741,-0.9100979821373203,-95.34032397727871,12.790902140976034,80.18831634403308,9.350028767455786
1679940924.175981,12.258514048349896,-0.9101018514699537,-95.33347705226505,12.790902141037881,80.1883163439842,9.350056749617213
1679940925.17579,12.258515279756415,-0.9101016336906245,-95.34350733245995,12.790902141100242,80.18831634393486,9.350084707887772
1679940926.842289,12.258497081000138,-0.9101137996416029,-95.31298297354012,12.79090214119016,80.18831634390631,9.350112083592236
1679940927.842078,12.258491693064387,-0.9101081604972588,-95.32922452948439,12.790902141169688,80.18831634379794,9.35013881177631
1679940928.175444,12.258490943157492,-0.9101118392397468,-95.32926583004205,12.790902141309216,80.18831634381189,9.350163658566016
1679940928.508683,12.258493234444545,-0.9101117898609233,-95.32423238062337,12.790902141400252,80.18831634378323,9.350190986540287
1679940928.841919,12.258495483912755,-0.9101088150967951,-95.32143839968961,12.790902141431514,80.18831634371001,9.35021896657601
1679940929.508536,12.25848865632087,-0.9101113189445658,-95.29174813926996,12.790902141475637,80.18831634364508,9.350246973742708
1679940929.841899,12.258491992862622,-0.9101112895272909,-95.30325152416842,12.790902141588797,80.18831634362866,9.350273394430932
1679940931.50824,12.258506234337787,-0.9101162169547024,-95.31712253583277,12.790902141695836,80.18831634360953,9.35030010347138
1679940931.841453,12.258499238317464,-0.9101208440524574,-95.29054741117515,12.790902141803475,80.18831634358997,9.350326780137772
1679940932.174837,12.25848755002859,-0.9101168450797777,-95.28212404168153,12.790902141651136,80.18831634342885,9.350343149161503
1679940932.508151,12.258481611854814,-0.9101123261430935,-95.29091633697193,12.790902141564818,80.18831634328482,9.350366001923897
1679940933.174663,12.258491674716709,-0.910110887841717,-95.30744496708485,12.790902141666217,80.18831634325863,9.350392910574492
1679940933.507948,12.258490512433214,-0.9101091666876443,-95.30563696014345,12.790902141667107,80.1883163431634,9.350420316888137
1679940934.507806,12.2584677766449,-0.9101164273344562,-95.27989870776373,12.790902141744954,80.18831634311893,9.35044789407072
1679940934.841082,12.258461249156044,-0.9101152268471328,-95.26812378683927,12.790902141749076,80.18831634302204,9.350475226843784
1679940935.507688,12.258455648027924,-0.9101151813423201,-95.26293338800771,12.790902141776428,80.18831634293717,9.350502865141634
1679940936.840793,12.258452474675716,-0.9101187620671705,-95.25786738517401,12.79090214187745,80.18831634290343,9.350529692625127
1679940937.840653,12.258459778444298,-0.9101099211152593,-95.25965502321209,12.79090214190034,80.18831634281398,9.350557211674813
1679940939.507135,12.258509136233558,-0.9101133537424441,-95.16137274857415,12.79090214196915,80.18831634275247,9.350584696224738
1679940939.840391,12.258508734162756,-0.9101059779506027,-95.16023155394856,12.790902141809463,80.18831634258717,9.350599656666523
1679940940.507016,12.258473125219743,-0.9101178389859329,-95.15208046504456,12.790902141769484,80.18831634268074,9.350572540779261
1679940941.173402,12.258449664111076,-0.91011431710774,-95.1411709552211,12.790902141599146,80.18831634267582,9.350550122542039
