Timestamps,Roll_N,Pitch_E,Yaw_U,Latitude,Longitude,Altitude
1679940691.624205,2.11,4.56,-80.51,12.789361954,80.188171387,11.78
1679940692.624043,2.1099636613467196,4.559986331281492,-80.48942569756656,12.789361954257437,80.18817138703476,11.780005712196063
1679940693.95715,2.109968582861145,4.559986640384664,-80.4919548013143,12.789361953996607,80.18817138699777,11.780008743366484
1679940694.290417,2.1099705897077445,4.559986588787367,-80.4917972717296,12.789361953738071,80.18817138696294,11.78001380301243
1679940696.289654,2.1099777414512837,4.559985842097159,-80.45710980280501,12.789361953475062,80.18817138693495,11.78001525836482
1679940699.28935,2.109966345789959,4.559986546629567,-80.40907425262074,12.78936195321156,80.18817138690964,11.78001607210999
1679940700.289257,2.1099615164475067,4.559986722417687,-80.41066175477066,12.789361952951133,80.18817138687163,11.780019361983225
1679940700.955791,2.1099646723539234,4.559986519105509,-80.4217441323787,12.789361952697897,80.188171386834,11.780026873318938
1679940701.288986,2.109962798015897,4.559984139346072,-80.40746491526058,12.789361952449529,80.18817138680487,11.780036517073768
1679940701.955623,2.1099549756265112,4.559987463066866,-80.37776633570294,12.789361952198954,80.18817138677147,11.78002777671441
1679940702.288801,2.109951056711658,4.559986146099107,-80.37368718710097,12.789361951948477,80.188171386738,11.780036545660343
1679940702.622186,2.109950412870914,4.559985491375614,-80.37570620513277,12.789361951708962,80.18817138670572,11.780048529174039
1679940702.955495,5.18872960771645,4.550072876369036,-80.67671063309001,12.78936195147801,80.18817138667322,11.780062413225718
1679940703.288683,8.268091541343061,4.540578365468194,-80.96269895670697,12.789361951736394,80.18817138672267,11.780058935961485
1679940703.955219,8.268086115832471,4.540575814070687,-80.96307155047238,12.789361951486534,80.18817138668304,11.780050253941203
1679940704.288653,8.26808417371566,4.540575796169939,-80.96072381433694,12.789361951269933,80.18817138663894,11.78003410271148
1679940705.288424,8.26807350292762,4.540573023328716,-80.94481865828149,12.789361951048292,80.18817138659826,11.780018701129304
1679940705.621667,11.32529309100122,4.566761613074058,-80.33600127381487,12.789361950907658,80.18817138676329,11.780001530888798
1679940706.288266,11.325289161441589,4.566759258609084,-80.33971027844949,12.789361951166548,80.18817138680062,11.779996921072614
1679940706.954779,14.431421646010774,4.565551652158332,-80.36826002850403,12.789361951427463,80.18817138677603,11.77999271895992
1679940708.287975,14.431411291304222,4.5655521080740735,-80.37625684978848,12.78936195116779,80.18817138673481,11.779989163407858
1679940708.954502,14.43140861643431,4.5655491420820296,-80.37331376346538,12.789361950907512,80.1881713866991,11.77999288422494
1679940710.620993,14.431403566291937,4.565550741109988,-80.37119907292023,12.789361950646862,80.18817138666067,11.779989870124
1679940711.620831,14.431392136685607,4.565549541226393,-80.33894840136992,12.789361950387828,80.18817138662985,11.779984815173762
1679940713.953834,14.431375570735186,4.565543683289762,-80.32257234697668,12.789361950126462,80.18817138659686,11.779987828314946
1679940715.620232,14.431368856781006,4.565544642616054,-80.33455000439135,12.789361949864897,80.18817138655515,11.779988150104083
1679940715.953619,14.4313664101726,4.5655444106486405,-80.32525987444122,12.789361949606095,80.1881713865182,11.779983444724426
1679940716.286899,17.480210881729548,4.600092671150247,-79.59886275326409,12.789361949448741,80.18817138672854,11.779977662097991
1679940716.62006,17.48020856896056,4.600091806303516,-79.59213847806457,12.78936194965442,80.18817138675698,11.779959475829061
1679940716.95345,17.480209770510417,4.60009288832449,-79.59625784332763,12.789361949861767,80.18817138678779,11.779941569274538
1679940717.286711,17.48020959270383,4.600094061122951,-79.59786460533095,12.78936195007675,80.18817138681821,11.779924792444234
1679940717.620006,17.480208550509662,4.600090286366933,-79.5880565591368,12.789361950203583,80.18817138684267,11.779899217070124
1679940717.953299,17.4802026159345,4.600087891173227,-79.57693374428084,12.789361950400828,80.18817138687005,11.779879903853164
1679940720.619604,17.480180503159186,4.600089065211409,-79.56129744684311,12.78936195061985,80.18817138689676,11.77986370196243
1679940720.952838,17.480178526032546,4.6000865215122895,-79.55147859234457,12.789361950766853,80.1881713869228,11.779839503807503
1679940721.286104,20.550112533540442,4.638587796964821,-78.5482302357813,12.789361950884006,80.18817138669623,11.779830295589148
1679940721.619501,20.550110615091235,4.638590590949978,-78.5500154418594,12.789361950773701,80.18817138667788,11.779856848859069
1679940722.286207,20.550113647786404,4.638587924228232,-78.55810755830628,12.78936195084312,80.18817138665932,11.779885043809537
1679940722.952592,20.550111836789817,4.638587508483839,-78.55179133423212,12.789361950873692,80.18817138663941,11.779914058109101
1679940723.285834,20.550108566669113,4.638585063285821,-78.55038363134229,12.789361950963706,80.18817138662067,11.779941528211108
1679940723.619074,20.550105373646364,4.6385854484347435,-78.54241960517251,12.78936195096031,80.18817138660079,11.779970738281785
1679940724.285697,23.636184775853664,4.621426816612151,-79.1144913544213,12.789361951048258,80.18817138668454,11.779996827531738
1679940724.618969,26.669913836879026,4.660089945976082,-78.41802029110782,12.789361951175742,80.18817138655534,11.779975325321482
1679940724.952877,26.669914664034273,4.660092548460615,-78.41573266476699,12.789361951146079,80.18817138654168,11.780004393966465
1679940725.285533,29.750495106446756,4.684025394152638,-77.65882185465577,12.789361951121833,80.18817138660359,11.780032777061523
1679940726.285397,29.750489957119573,4.684024863595066,-77.66984448499115,12.78936195094363,80.18817138660916,11.780011122114642
1679940726.618716,29.750486592293903,4.684023988651814,-77.66293643836529,12.78936195077995,80.18817138661781,11.779988117678474
1679940727.285235,29.75048112103655,4.684017309580211,-77.63890727524917,12.789361950549756,80.188171386631,11.77997371692322
1679940727.618544,29.75047396345497,4.684013775509101,-77.62870062592368,12.789361950296158,80.18817138664072,11.779965366289657
1679940728.285061,29.75047085998414,4.684018663081965,-77.62934772668467,12.789361950201545,80.18817138664718,11.77993801756151
1679940728.618355,29.750476383546392,4.684014700633986,-77.6362095030425,12.789361949948368,80.1881713866526,11.779929466306502
1679940729.284977,29.750472862622686,4.684015877660592,-77.63623266346174,12.78936194979024,80.18817138665999,11.779905986230188
1679940731.284596,29.750455175402024,4.684018410627502,-77.61219160726579,12.789361949643757,80.18817138667086,11.779881614275501
1679940731.617944,29.750454152326117,4.684019502076627,-77.61459202076776,12.789361949487468,80.1881713866778,11.779857983278998
1679940732.951063,29.750446268468863,4.68401988550162,-77.60576129893353,12.789361949319353,80.18817138668676,11.77983537417255
1679940733.617724,29.750441237927845,4.684020361481219,-77.60849735588181,12.789361949138613,80.1881713866938,11.779813982830353
1679940733.950907,29.75044481956136,4.684016598560419,-77.60237834890162,12.789361948912127,80.18817138670285,11.77979884202513
1679940734.284299,29.75044661191518,4.684017025082979,-77.60703977234553,12.789361948730555,80.18817138670953,11.779777536545746
1679940734.95078,32.855409284100574,4.675013392502076,-78.0768856139518,12.789361948519046,80.18817138659847,11.779764687820736
1679940736.617214,32.85538504786244,4.675002312422337,-78.02033720400401,12.789361948638865,80.18817138658147,11.779790743427618
1679940738.28363,32.8553830249965,4.675010390622925,-78.05587287893047,12.789361948681117,80.18817138657357,11.77981964519731
1679940738.616894,32.855383064418476,4.675005965261663,-78.04542855426048,12.78936194887457,80.18817138656203,11.77983960492336
1679940738.950216,32.85538270466508,4.675008284159789,-78.02964624975544,12.789361948848763,80.18817138655409,11.779868743372974
1679940739.616841,32.855376671498874,4.675009422213806,-78.02496833173277,12.789361948872596,80.18817138654477,11.779897898138474
1679940739.950048,32.85537845298863,4.675006979643817,-78.02058881787623,12.789361949015651,80.18817138653408,11.779922518496344
1679940740.283438,32.85538058559069,4.675009498580029,-78.01566608556114,12.789361949058216,80.18817138652442,11.779951410565372
1679940740.61658,32.855375589857424,4.675009674797306,-78.01273892774755,12.789361949078284,80.18817138651526,11.779980600584214
1679940740.950011,32.855370517895466,4.675005450273133,-78.00809350356542,12.789361949311166,80.18817138650556,11.77999449620453
1679940741.616563,32.85536297670383,4.675006121052178,-77.99249882925268,12.789361949341147,80.18817138649587,11.7800235801541
1679940742.2831,32.85536201849688,4.67501209969947,-78.04853241344185,12.789361949339368,80.18817138648717,11.78005285528216
1679940742.616304,32.855363361224995,4.675004954732906,-78.05272749809286,12.78936194957332,80.18817138647982,11.780066548258432
1679940742.949673,32.85535840976159,4.674998739534806,-78.03260996170489,12.78936194976701,80.18817138646635,11.780086464247942
1679940743.616267,32.855341726612565,4.6749992337104125,-77.96931332576249,12.789361949676723,80.18817138646553,11.780114000212464
1679940743.949466,32.85533897598951,4.674998129494639,-77.97254268014277,12.789361949818113,80.1881713864559,11.780138743709085
1679940744.282864,32.855344818565534,4.675000315872479,-77.99003054878236,12.789361949917172,80.18817138644776,11.780165891970412
1679940744.616136,32.85534938286699,4.675001323406858,-78.00948645151777,12.789361950035238,80.18817138644008,11.78019209657797
1679940744.949542,32.85534998005952,4.675000535515741,-78.00928482386215,12.7893619501512,80.18817138643001,11.780218405489906
1679940746.282532,32.85533556308759,4.674991697589019,-77.97423595282646,12.789361950285233,80.18817138641515,11.780243615937309
1679940747.615608,32.85534550163173,4.674993177989761,-77.98281942451158,12.789361950395007,80.18817138640613,11.780270251437173
1679940747.948874,32.85533944437055,4.674993809100343,-77.97535693190977,12.789361950426018,80.18817138639672,11.780299323064513
1679940750.281936,32.85535411311168,4.675005293108176,-78.05378342824952,12.789361950541224,80.18817138639592,11.780325693948392
1679940750.615158,32.85535239172798,4.674997632654412,-78.03583986463573,12.789361950723125,80.18817138638292,11.780346931491122
1679940752.281648,32.855338397630966,4.675004870144769,-78.00199763599082,12.789361950735083,80.18817138637345,11.780376174998706
1679940752.948208,32.85533748155452,4.674978614525085,-78.0109476228989,12.789361950966516,80.18817138636699,11.780390385792938
1679940753.281604,32.85532995101628,4.674977657624471,-77.99934286397604,12.789361951115776,80.18817138635514,11.780414543895732
1679940756.281091,32.85531046473218,4.674979651956822,-77.96764580143643,12.78936195117204,80.18817138634375,11.780443138923168
1679940756.614319,32.85531225514514,4.674963193052943,-77.9759571207395,12.789361951435676,80.18817138633983,11.780445811131592
1679940756.947622,35.96214047566569,4.609444122193331,-80.13157798924519,12.789361951277224,80.18817138655585,11.780446549262043
1679940758.280794,35.96212354006654,4.609453908986316,-80.05611037252139,12.789361951425336,80.18817138656046,11.78047082298015
1679940758.614468,39.0858989938791,4.561325313758896,-82.49882587779457,12.789361951336206,80.18817138663022,11.78044430122762
1679940758.948516,39.08590487049534,4.561325824780282,-82.49765377872956,12.789361951558298,80.18817138659011,11.780428958892735
1679940760.280451,39.08588970284372,4.561329201903146,-82.4605185962988,12.789361951816291,80.18817138654661,11.780424372967419
1679940760.613758,39.085905443570894,4.561319630347679,-82.46614700586584,12.789361951617487,80.18817138658638,11.780443229584769
1679940760.947073,39.085906284813156,4.561318900297322,-82.4609130498588,12.78936195183545,80.18817138654543,11.780427206447209
1679940761.613607,39.08591014299034,4.561315432755982,-82.4791205683785,12.789361951999092,80.1881713865081,11.780404539104769
1679940761.94688,39.085928560671064,4.561301914612213,-82.4507830279773,12.78936195208973,80.1881713864687,11.780377352710827
1679940762.280133,39.08594796175065,4.561294141632913,-82.42291488402317,12.789361952221796,80.18817138642544,11.78035240480527
1679940762.946721,42.21157850599274,4.552580146368081,-83.35264690138483,12.789361952256925,80.18817138654646,11.780326515268545
