Timestamps,Roll_N,Pitch_E,Yaw_U,Latitude,Longitude,Altitude
1679940257.588811,1.17,-0.64,-93.49,12.791719437,80.188400269,5.81
1679940257.922045,-1.945972166263262,-0.6522346874604845,-92.65230519717709,12.79171943706324,80.18840026915338,5.810023059461532
1679940258.255487,-1.9459800913127516,-0.6522413432638764,-92.68097037496418,12.791719436989954,80.1884002692379,5.809996450525617
1679940258.588629,1.0280521770536892,-0.8250903345706421,-94.29645254036751,12.791719436758582,80.18840026932816,5.809986117175662
1679940258.921928,1.02805341539713,-0.8250898859436674,-94.29471582938909,12.791719436937653,80.1884002694671,5.809970692507729
1679940259.255201,1.0280670213762602,-0.8250763607358313,-94.28977196098964,12.791719437192734,80.18840026952124,5.80996549431536
1679940259.588486,1.0280699289100814,-0.8250725020032973,-94.26128866938569,12.791719437441307,80.18840026958563,5.809958219865722
1679940259.921724,1.0280673569301646,-0.8250799185531462,-94.21651244892892,12.791719437527725,80.18840026975718,5.809937733683884
1679940260.255175,1.0280686626408364,-0.8250892620745636,-94.17767671881911,12.791719437545233,80.18840026993935,5.80991621404333
1679940260.588356,1.028063596526544,-0.8250794824933213,-94.18348440555968,12.791719437782518,80.18840026985085,5.809924963092069
1679940260.921235,1.0280734888036955,-0.8250716833123202,-94.18829173203633,12.791719437989872,80.18840026995817,5.809910962362216
1679940261.254511,1.0280850545325153,-0.8250695762523401,-94.18959978640414,12.79171943812127,80.18840027011301,5.809891882894351
1679940261.587845,1.028071901858354,-0.8250728400137243,-94.20210502655526,12.791719437889357,80.18840027003017,5.809902783505806
1679940261.920993,1.028070481565087,-0.8250761301706079,-94.21062884648144,12.791719437823115,80.18840027020846,5.8098820576101495
1679940262.254319,1.0280831012216594,-0.8250780047233203,-94.20334162356289,12.791719437923078,80.18840027037564,5.809861900843962
1679940262.587715,1.028097588737963,-0.8250759818807688,-94.20949055377962,12.791719438045149,80.18840027053562,5.809842565397926
1679940262.920936,1.028098309307949,-0.8250776474564129,-94.21325954407544,12.791719438138305,80.18840027070526,5.809822253975606
1679940263.254129,1.0280998971148456,-0.8250806666478968,-94.20987384790284,12.791719438186723,80.18840027088424,5.809801000767469
1679940263.587579,1.0280926041503324,-0.8250877911728671,-94.20554300243887,12.791719437948887,80.18840027096967,5.809792076102555
1679940263.920748,1.0280840079549678,-0.8250837274126422,-94.20258356680147,12.791719438152741,80.1884002708482,5.809805323294282
1679940264.253991,1.028088890253384,-0.8250759523980666,-94.18917736662796,12.791719438402975,80.1884002709,5.809797578003285
1679940264.587357,1.028086591999403,-0.825074180402897,-94.16975519323329,12.79171943862443,80.188400270991,5.809784922067031
1679940264.920627,1.0280838489700739,-0.8250744978563447,-94.16125045449665,12.791719438772892,80.18840027113563,5.809766438498782
1679940265.253829,1.028078141309833,-0.8250779576719217,-94.15403967561119,12.791719438609416,80.18840027128697,5.809750285194903
1679940265.587222,4.145797758025522,-0.7184897087558558,-91.4515527239887,12.791719438810542,80.18840027146176,5.809748633060109
1679940265.920459,4.145786577931635,-0.7184872955749427,-91.43998407342151,12.791719439065966,80.18840027141749,5.809754666814363
1679940266.25376,4.145786659359602,-0.7184875528934609,-91.43987010629621,12.791719439265439,80.1884002712578,5.809746274106073
1679940266.58707,4.145795215867354,-0.7184890353564677,-91.44478724844183,12.791719439353965,80.18840027105671,5.809729382568661
1679940266.920304,4.145794121103125,-0.7184919484587531,-91.44482557661125,12.791719439405444,80.18840027085368,5.809710952540707
1679940267.2536,4.145785523301236,-0.7184934282278207,-91.42750208621683,12.791719439632303,80.18840027071988,5.809706819118245
1679940267.586937,4.145787212167133,-0.7184941106595759,-91.41984013018093,12.791719439801396,80.18840027054118,5.809695347406253
1679940267.920159,4.145778286396956,-0.7184892630264994,-91.42607309316836,12.791719439916337,80.18840027070009,5.809715312188813
1679940268.253482,4.145779531559342,-0.7184865750742598,-91.42618205750975,12.791719440166494,80.18840027061174,5.809715642564222
1679940268.586741,4.14578266504061,-0.7184864119768484,-91.41736559429879,12.791719440391944,80.18840027047767,5.809710741516553
1679940268.920026,4.145770747507091,-0.7184871319415891,-91.40051497669408,12.791719440642892,80.18840027039201,5.809711612486415
1679940269.253377,4.145774729082037,-0.7184916219333457,-91.39299284938772,12.79171944070595,80.18840027018875,5.809693661834549
1679940269.586561,1.0312988680494466,-0.6202225149429481,-94.02752680166579,12.791719440764785,80.18840027002013,5.80967174302525
1679940269.919894,1.0312829329211746,-0.6202132614390542,-94.06015656031062,12.791719440914468,80.18840026982762,5.809683860389669
1679940270.253179,1.0312990394755068,-0.6202109407144584,-94.06125009932785,12.791719441022519,80.18840027001647,5.809666691862493
1679940270.586415,1.0312982606084082,-0.6202194955027495,-94.01405627748713,12.791719441065343,80.18840027022814,5.809649159522999
1679940270.919672,1.0312842241354971,-0.6202230552934039,-93.99936755309248,12.791719440985977,80.1884002700303,5.809667032795248
1679940271.253291,1.0312684800038712,-0.6202211245666536,-94.00733652730845,12.791719440941158,80.18840026982194,5.809684968245624
1679940271.586325,1.0312739732412457,-0.6202267981410118,-93.99079056298146,12.791719440920803,80.18840027004161,5.809668112013089
1679940271.919687,1.031278357650235,-0.6202261862450681,-93.98534385955166,12.791719441036596,80.18840027022082,5.809650355161266
1679940272.25284,1.0312647338011736,-0.620223624046206,-93.9916136734855,12.791719441161566,80.18840027001484,5.809663264351065
1679940272.586138,1.0312528970144357,-0.6202271476332586,-93.99862377383182,12.791719441146284,80.18840026980021,5.809680929375337
1679940272.919429,4.145266404855417,-0.6742705216084438,-96.208288348622,12.791719441387977,80.18840026976187,5.809669717377449
1679940273.25276,4.145276541652616,-0.6742695691105699,-96.23854374622057,12.791719441284632,80.18840026956056,5.80965392041402
1679940273.585985,4.14528802025149,-0.6742648351753701,-96.26119338496741,12.79171944124702,80.18840026940212,5.809630579586157
1679940273.919353,7.250292660682222,-0.6929199716342839,-97.19241815087405,12.791719440996266,80.18840026941841,5.809621342575052
1679940274.252595,10.331129129498542,-0.7601734834794267,-98.84963851568195,12.791719441187505,80.18840026953858,5.809636839669156
1679940274.585845,10.331121998154957,-0.7601735757139324,-98.82617331992063,12.791719441276397,80.1884002694683,5.8096633550126535
1679940274.919149,10.331111968468628,-0.7601674905204049,-98.80313673249901,12.791719441132004,80.18840026964826,5.809678222873333
1679940275.252434,10.331100283456557,-0.7601657580159868,-98.7841209983339,12.791719441070024,80.18840026975634,5.809704169840921
1679940275.585719,13.427512583219313,-0.724506509652783,-97.42895937029067,12.791719441143995,80.18840026967874,5.809731002380955
1679940275.919014,13.427511686470234,-0.7245061212446255,-97.42063315445418,12.791719440921788,80.18840026979369,5.80974089827491
1679940276.252227,13.427509132332894,-0.724504777114736,-97.41541226766168,12.791719440675449,80.18840026987202,5.809747449692505
1679940276.585555,13.427505134295641,-0.7245064744272871,-97.41251989586928,12.791719440541417,80.18840027004812,5.809763957314214
1679940276.918834,13.427498522711366,-0.7245084118313145,-97.39468707725764,12.791719440349397,80.18840027019095,5.809776850188111
1679940277.252146,13.427495539840205,-0.7245062581497945,-97.37791647134908,12.79171944009145,80.18840027023903,5.8097808947138505
1679940277.585461,16.398413740264285,-0.7153242416482329,-97.27345261083943,12.791719439926995,80.18840027012644,5.809800324763612
1679940277.918708,16.398417109215895,-0.7153249843907223,-97.28812865760374,12.791719440098213,80.18840026998312,5.809784292678955
1679940278.252002,16.398425099993375,-0.7153237290804646,-97.31282082495615,12.791719440283227,80.18840026984965,5.809769155558133
1679940278.585233,16.39842603029746,-0.7153261383882983,-97.33304721989013,12.7917194403475,80.18840026965526,5.80975013144698
1679940278.918628,19.521567228853755,-0.7716174698104942,-99.84499171910949,12.79171944031769,80.18840026942642,5.809734973263013
1679940279.251841,19.521563261468486,-0.7716207902323787,-99.83087279361689,12.791719440317115,80.18840026959555,5.809712152926219
1679940279.585194,19.52155745134684,-0.7716184670589783,-99.8094669737118,12.791719440536149,80.1884002695578,5.809696213577321
1679940279.918431,22.619751109074773,-0.7018652625800689,-97.76445114919136,12.79171944057783,80.18840026978594,5.809711152099304
1679940280.251702,25.508466000205182,-0.5292066428284934,-96.55435502333582,12.79171944070282,80.18840026955515,5.809717385566806
1679940280.58502,25.50846186283332,-0.5292044978701654,-96.52949466746388,12.791719440506993,80.18840026951064,5.809736497563373
1679940280.918287,28.581486260874822,-0.5100828318514588,-95.95888707046839,12.791719440381678,80.18840026958087,5.809761146662446
1679940281.251604,28.581479133511326,-0.5100794035967536,-95.95104820593151,12.791719440484512,80.18840026971057,5.809738121008501
1679940281.584876,31.688557775476475,-0.4574010161381712,-93.97265646466847,12.791719440666,80.18840026975073,5.809758997875905
1679940281.918223,31.688563519536434,-0.4573993946399704,-93.97984258515194,12.7917194409042,80.18840026981336,5.809748165098028
1679940282.251434,34.78674148261163,-0.45678276992856415,-93.93821573497135,12.791719441135,80.18840026974533,5.809735855749982
1679940282.584787,37.89754345095339,-0.5201123126021088,-96.18511245708311,12.791719440968182,80.18840026958571,5.809750588046606
1679940282.918029,40.993083528113466,-0.5831221643632634,-98.07268086406079,12.79171944114303,80.1884002697384,5.809765044210125
1679940283.251366,40.993088717632965,-0.5831227915351651,-98.07016504658193,12.79171944136163,80.18840026969669,5.809780937748349
1679940283.584559,40.993078952559244,-0.5831232176567274,-98.05365126382095,12.79171944156074,80.18840026970891,5.809800199602253
1679940283.917877,40.99307146427279,-0.5831226148739096,-98.03620481857521,12.79171944164199,80.18840026987066,5.809821850008067
1679940284.251196,40.99306837340073,-0.5831218915730509,-98.0259176137928,12.791719441807178,80.18840026995149,5.80984299143992
1679940284.584409,40.993068079588994,-0.583122338898793,-98.02479749282597,12.791719442015017,80.18840026996365,5.809861089172948
1679940284.917774,44.055400967385815,-0.5599473810080892,-97.45042604359666,12.791719442178728,80.18840026983199,5.809879132457472
1679940285.251056,44.05540509879913,-0.5599459755057263,-97.45918897662222,12.79171944191605,80.18840026981213,5.80987616043126
1679940285.584227,44.055405900378155,-0.5599517509917977,-97.47055328375606,12.791719441718172,80.18840026996929,5.809885519672897
1679940285.917598,47.138069351704445,-0.5765317865722194,-98.0123894544903,12.791719441540994,80.18840026977476,5.809890778980532
1679940286.250828,47.13806493163545,-0.5765335254499698,-98.00906103374817,12.79171944176564,80.18840026974206,5.80990587029068
1679940286.584112,47.13805365641482,-0.5765349235478193,-97.99168834705024,12.791719441916602,80.1884002698476,5.8099270298033
1679940286.917387,47.138046186701175,-0.5765366052853819,-97.97786678491184,12.791719442112711,80.1884002698935,5.809946067299527
1679940287.250673,50.222816004548754,-0.5500846407999186,-97.07958820858708,12.791719442151894,80.18840026970263,5.809966308215194
1679940287.584095,50.22281318086625,-0.5500793787299111,-97.05509585042836,12.791719441942062,80.1884002695428,5.80996206872345
1679940287.917282,53.349863339767786,-0.6502387520333021,-99.88921951271014,12.791719442012276,80.18840026976402,5.809976925067023
1679940288.25054,53.349862833853955,-0.650242653447287,-99.87957826850513,12.791719441841424,80.18840026969696,5.809998083722985
1679940288.583784,53.34986783689224,-0.6502333419580553,-99.89018825546654,12.791719441616108,80.18840026983221,5.810002667780319
1679940288.917114,53.34987306588165,-0.6502327950014578,-99.90877728715698,12.791719441400915,80.1884002698348,5.810019729278455
1679940289.250488,53.349874308947555,-0.6502357686211401,-99.92493696409822,12.79171944122713,80.18840026976444,5.81004046482325
1679940289.583667,53.34987254918866,-0.6502354401621653,-99.94059626340696,12.791719441005217,80.18840026977122,5.810056424223984
1679940289.916977,53.349867397503914,-0.6502352453668588,-99.94802650608999,12.791719440769093,80.18840026987533,5.81006333763748
1679940290.250292,53.34986426953017,-0.650237496602729,-99.94044234670875,12.791719440551987,80.18840026986776,5.81008008310504
1679940290.583644,53.349861105805715,-0.650234846173314,-99.92286048455212,12.791719440319996,80.18840026998497,5.810086191411184
1679940290.916843,53.34985078997395,-0.6502289696122739,-99.91271201885309,12.79171944018108,80.18840027019483,5.810076064286589
1679940291.250097,56.295671097157005,-0.5950483950466617,-99.35434278032842,12.791719439965481,80.18840027027566,5.81009062550808
1679940291.583438,56.29566432835855,-0.5950453734500528,-99.3370950602921,12.79171944013103,80.1884002700763,5.810083276609652
1679940291.916658,56.29565935243964,-0.5950415197499657,-99.31542877064662,12.791719440295102,80.18840026987925,5.810074864809286
1679940292.250012,56.29565368006063,-0.595045021376875,-99.31393049054824,12.79171944039192,80.18840026987137,5.810047615019738
1679940292.583333,59.32363205967634,-0.5747384084073031,-98.95555991566725,12.791719440523854,80.1884002699251,5.810022897127329
1679940292.916536,59.323635736213404,-0.5747376674932553,-98.95662353867885,12.791719440463066,80.18840027002226,5.810049380901885
1679940293.249858,59.32364013381955,-0.5747384685275837,-98.96115979300791,12.791719440419113,80.18840027009215,5.810077251390128
1679940293.583121,59.32363870444384,-0.5747401423095599,-98.96308130232448,12.791719440370361,80.18840027016816,5.810104833526151
1679940293.916314,59.323633514814134,-0.5747381594289122,-98.96750293156067,12.791719440236452,80.18840027037622,5.810116154421047
1679940294.249689,62.31177964777779,-0.6138615663257367,-99.46401598626856,12.791719440252058,80.1884002703569,5.8101453188356675
1679940294.5831,62.31177885055825,-0.6138653033437608,-99.46438104515782,12.79171944039672,80.18840027032728,5.810120999203795
1679940294.916297,62.31177642310744,-0.6138728410254056,-99.45529480685381,12.791719440488395,80.18840027038063,5.810094137117436
1679940295.249484,62.311772352588214,-0.6138704113505635,-99.42906476882601,12.79171944066326,80.18840027018678,5.810087751873079
1679940295.582836,65.42009195327279,-0.5552256969150887,-97.31134345149503,12.791719440538882,80.18840027041914,5.810082077132349
1679940295.916143,65.42008855019829,-0.5552293352575582,-97.31618063164477,12.791719440803005,80.18840027042577,5.810080151743726
1679940296.249416,65.42008699942285,-0.5552289069617591,-97.3221752843244,12.791719440994337,80.18840027059052,5.810089639025998
1679940296.582709,68.50628060811728,-0.5461450324065555,-96.98140619353532,12.791719441142549,80.18840027038055,5.810097969710814
1679940296.915935,68.50628736425418,-0.5461419661098609,-96.98659110664194,12.791719440934378,80.18840027021471,5.810096121753357
1679940297.249244,68.50628386606466,-0.5461412074894763,-96.99661038964258,12.791719440777223,80.18840027000799,5.810088916953714
1679940297.582528,68.50627670890819,-0.5461390569400186,-96.99101935989268,12.791719440737475,80.18840026977803,5.810074246886765
1679940297.915858,71.59083084795914,-0.5049626694428849,-95.71997345212054,12.79171944090623,80.18840026996817,5.810065122508602
1679940298.249101,74.44808913026425,-0.3841320420033078,-94.91639207516423,12.791719440824068,80.18840026975985,5.81004888238217
1679940298.582474,77.54421195999808,-0.40383629013819916,-95.71163973900057,12.79171944084089,80.1884002699648,5.810067839671055
1679940298.915656,80.63563921179988,-0.419850202567318,-96.30582362613467,12.791719440959577,80.18840026986061,5.8100442256409135
1679940299.248994,80.63563192791007,-0.4198544184236141,-96.30037970927607,12.791719440807249,80.18840026976252,5.810065687045478
1679940299.582203,80.63562667139857,-0.41985487059175763,-96.29860125123267,12.79171944066637,80.1884002695426,5.810072384636027
1679940299.915603,80.63562727861878,-0.4198556235883933,-96.30352778549013,12.791719440516529,80.188400269348,5.810084077021312
1679940300.248845,80.63562930639114,-0.4198587723616482,-96.30183468720398,12.791719440362609,80.18840026916554,5.810097326989214
1679940300.582148,80.63563149832727,-0.41985602087937707,-96.2980092500344,12.791719440247796,80.18840026892276,5.810095970833161
1679940300.915438,83.74597322472671,-0.34034270578895276,-93.89763762592655,12.791719440132043,80.18840026906014,5.810117687153035
1679940301.248619,83.74596685898048,-0.34033969718628904,-93.89310283598698,12.791719440317552,80.18840026920691,5.810104165902371
1679940301.581967,86.75507116318784,-0.2856834777263883,-93.10947101957602,12.791719440092521,80.18840026908246,5.8100967081069355
1679940301.915421,86.75507131006385,-0.28568501275945707,-93.10682215578082,12.791719440205796,80.18840026885738,5.810086526636937
1679940302.248695,86.75507047128907,-0.2856856356490786,-93.10446829087172,12.791719440303146,80.18840026861034,5.810081785849302
1679940302.581759,86.75506763687127,-0.28568331841751965,-93.10264648071119,12.79171944033716,80.18840026836176,5.81009252796559
1679940302.915132,86.75506540625715,-0.28568202986537894,-93.0882086745248,12.791719440410288,80.1884002681027,5.810093707442609
1679940303.248411,89.80266180024687,-0.2543720711478595,-92.43067698003846,12.791719440616124,80.18840026827235,5.810094154341546
1679940303.581655,92.86573909534353,-0.21312915776545088,-91.45800326377174,12.791719440360154,80.18840026820648,5.810091946307706
1679940303.915021,92.8657420904296,-0.21312917325326947,-91.46687260472962,12.791719440311496,80.18840026795283,5.810083541174102
1679940304.24827,92.86574488985359,-0.21312801153864463,-91.47380481697023,12.791719440319293,80.18840026768962,5.810077179820615
1679940304.581541,92.86574422997596,-0.21312657303079513,-91.47750972197804,12.791719440374607,80.18840026742872,5.810072922299654
1679940304.915112,92.86574246105214,-0.21312846735566005,-91.4762806375018,12.791719440309647,80.18840026718078,5.81006388201942
1679940305.248142,95.94506747364221,-0.22088313426482967,-91.70226243915873,12.791719440195147,80.1884002674149,5.810056709800027
1679940305.581323,99.00433735237817,-0.18513298797042277,-90.87156610637138,12.791719439948249,80.18840026732228,5.810059996040398
1679940305.914761,99.00433270295544,-0.1851334610641649,-90.8652154458041,12.791719440024902,80.1884002670729,5.810052726338003
1679940306.247989,102.02939650681937,-0.27244593563207536,-92.13533848526153,12.791719439784567,80.18840026697627,5.8100591298177795
1679940306.581206,105.07212674691014,-0.23350446353769974,-91.36540496637386,12.791719439532265,80.18840026690563,5.810054649755558
1679940306.914587,105.07212629730797,-0.2335034949880089,-91.34291756107763,12.79171943969517,80.18840026669304,5.810053987941882
1679940307.247794,105.07212550725346,-0.2335011208140051,-91.32930097936031,12.79171943984101,80.18840026646859,5.810052053110321
1679940307.581081,105.07212888861771,-0.23349620825630288,-91.35144328873325,12.791719440001383,80.1884002662546,5.810050201262279
1679940307.91443,105.07213053684924,-0.2334980746776133,-91.39346265744331,12.791719439914694,80.1884002660135,5.8100412201777925
1679940308.247703,105.07213270843069,-0.2335049441621734,-91.40793381646172,12.791719439803577,80.18840026578594,5.810031397721318
1679940308.580946,105.07213688573961,-0.23350835044234147,-91.39820614689005,12.79171943982021,80.18840026552333,5.81002495514918
1679940308.914258,108.13090040641944,-0.21826377325305768,-91.00714974325714,12.791719440009443,80.18840026570977,5.810021815030212
1679940309.2477,111.22061211588239,-0.170967812994791,-89.4940137080944,12.791719439869402,80.18840026592434,5.810030487659093
1679940309.580804,114.26259288739521,-0.14721424103925052,-88.99347054502766,12.791719439935287,80.18840026614112,5.810014646598305
1679940309.914123,114.26258767916144,-0.14720977167793994,-88.99359672296781,12.791719440075452,80.18840026618345,5.810039067500665
1679940310.247514,114.26258892255605,-0.14720567406796453,-89.00668492602597,12.791719440196353,80.1884002663652,5.810056088946681
1679940310.580718,117.3473402905249,-0.13569685431087314,-88.60716432404986,12.791719440219449,80.18840026611856,5.81006767824506
1679940310.913961,120.42757860778636,-0.12411624147019651,-88.22602647005571,12.791719440162861,80.18840026637133,5.810059578584683
1679940311.247373,123.50218474587295,-0.15688624653275815,-89.12682370520145,12.791719440382913,80.18840026622895,5.8100544434786485
1679940311.580549,123.50217946921448,-0.1568915560600707,-89.12184260209041,12.791719440357076,80.18840026596469,5.810059595860343
1679940311.913864,123.50217861524092,-0.15688933764474058,-89.1086447326856,12.79171944024305,80.18840026585913,5.810035773685325
1679940312.247137,123.50216983147354,-0.15688484960126095,-89.10296011242524,12.791719440147629,80.18840026592954,5.810009541998353
1679940312.58034,126.6094730494953,-0.19707841577485935,-90.81762413286374,12.791719439899747,80.18840026589437,5.810019100850138
1679940312.913689,126.60947099729556,-0.197086891165388,-90.80864312463392,12.791719439944707,80.18840026615693,5.810023646723318
1679940313.247017,126.60946790061313,-0.19708156614245703,-90.81077378349278,12.791719439691194,80.1884002661368,5.8100318074989605
1679940313.580223,126.609468559422,-0.19707753632398756,-90.81567026297378,12.791719439457633,80.18840026622544,5.810041694703535
1679940313.913542,126.60946704167783,-0.19707896810396747,-90.81762973104249,12.79171943931473,80.18840026643517,5.810051159106245
1679940314.246813,126.60946391158039,-0.19707957118401923,-90.81787025000432,12.791719439153232,80.18840026662939,5.810060854636496
1679940314.580103,129.65755844868292,-0.18293493190883797,-90.50536298702873,12.791719438950741,80.18840026650336,5.810073851505505
1679940314.913369,129.65755939416874,-0.1829333587234529,-90.5008144821145,12.791719439115866,80.18840026635418,5.810057668603753
1679940315.246644,129.657557467637,-0.1829343909218166,-90.49364115321582,12.791719439252326,80.18840026616911,5.810042625075347
1679940315.579962,132.7190234231779,-0.19094569077363888,-90.67294888854865,12.791719439315235,80.18840026640085,5.8100293406076755
1679940315.913293,135.78139903264463,-0.16248222902052112,-89.96884219843629,12.791719439102247,80.18840026645296,5.810045795648847
1679940316.24648,138.82637019318125,-0.15458541335183076,-89.79198060406546,12.791719439188512,80.18840026659065,5.810022484470409
1679940316.579805,141.88313544793496,-0.1365929031499409,-89.36265769086243,12.791719439136225,80.1884002665131,5.8100499367493805
1679940316.913101,144.951076848651,-0.10750806254517714,-88.59941573184003,12.791719439113205,80.18840026657465,5.810021533293204
1679940317.246313,144.95107576257325,-0.10750673106237348,-88.5884020151264,12.79171943932723,80.1884002666035,5.810038491652885
1679940317.579716,148.06141983914128,-0.16613334778874608,-90.74303152098261,12.791719439525757,80.18840026677786,5.810034346867967
1679940317.912928,145.02396631502052,-0.2751768180235818,-89.14001611267068,12.79171943962887,80.18840026701393,5.8100427654381965
1679940318.24625,148.09350549471122,-0.2582584924037249,-88.67268173069354,12.791719439725716,80.18840026689122,5.8100665493775105
1679940318.579593,148.0935082191153,-0.2582557392346693,-88.68225506184378,12.791719439523042,80.18840026687836,5.81004775447438
1679940318.912842,148.09350938806452,-0.2582568799269494,-88.68170151932797,12.791719439321977,80.18840026677671,5.810032218133262
1679940319.246067,148.09350234231462,-0.2582551698622279,-88.67310867053101,12.791719439169684,80.18840026690383,5.810012630651194
1679940319.57956,151.18000036417158,-0.22729330618019458,-87.63097517256573,12.791719439046114,80.18840026706712,5.809993743063854
1679940319.912695,151.18000210687805,-0.22729250830521247,-87.62251438063522,12.791719439293967,80.18840026708688,5.809983667508487
1679940320.24594,154.25314998401262,-0.25870478525548535,-88.46069451610437,12.791719439525904,80.18840026707772,5.809969574197527
1679940320.579368,157.28670459770507,-0.27855441500219436,-88.8088378685301,12.79171943927381,80.18840026711986,5.809961876688273
1679940320.912555,160.32741284987858,-0.26745341795575295,-88.5818875669739,12.791719439471526,80.18840026705398,5.809979997352412
1679940321.245945,160.32741257118846,-0.26745437189927246,-88.58471859808466,12.79171943925285,80.18840026702908,5.809963705656752
1679940321.579179,160.32740798468296,-0.2674578976542341,-88.5882052342965,12.79171943904939,80.18840026688957,5.809952664579347
1679940321.912418,163.40732464831686,-0.2713544493179321,-88.69594239613166,12.791719438823245,80.1884002669086,5.80993757220634
1679940322.24564,163.407322157867,-0.2713546626459631,-88.68534661419804,12.791719439010782,80.18840026686833,5.809957780644856
1679940322.579033,166.46944132803387,-0.280287553764935,-88.8883282814135,12.79171943923501,80.18840026688001,5.809973306480176
1679940322.912226,166.46944052616433,-0.28028671722752885,-88.88436618801695,12.79171943909472,80.18840026694382,5.809949449000281
1679940323.245529,169.52226088961373,-0.23212156439700074,-87.88874185513944,12.79171943891815,80.18840026696893,5.809927793795672
1679940323.578921,169.52226003104738,-0.2321198749857607,-87.89462093861025,12.791719439156779,80.18840026685243,5.809928827956395
1679940323.912111,169.5222622853316,-0.2321198608259615,-87.90036453097974,12.791719439417479,80.18840026680586,5.809928047751223
1679940324.245356,169.52226480967238,-0.23211929873102008,-87.90210406532003,12.791719439672447,80.18840026673313,5.80992811654456
1679940324.578644,169.5222688261301,-0.23211137863873338,-87.90429966480934,12.79171943984298,80.18840026653017,5.809932166828853
1679940324.911931,169.52226586700033,-0.2321074670054272,-87.90092400602582,12.79171944000534,80.18840026632074,5.8099364444532
1679940325.245197,172.59994054244828,-0.1934537626600079,-86.79699405713644,12.79171944024551,80.18840026620725,5.809935991692609
1679940325.578507,175.70505713320867,-0.0889814579338199,-84.33028166852907,12.7917194403442,80.18840026596023,5.809931583303001
1679940325.911797,175.7050539735807,-0.08898550979854429,-84.32869463577688,12.791719440114413,80.18840026599554,5.80994561933773
1679940326.245172,175.70505402839092,-0.0889949665008187,-84.3230575433018,12.791719439923332,80.18840026613884,5.809958621057086
1679940326.578401,175.70505192525798,-0.0890029538776277,-84.31677280930275,12.791719439767103,80.18840026632869,5.809970215959368
1679940326.911676,178.73476632039018,-0.15866166726647743,-85.41457648094924,12.79171943976349,80.18840026611325,5.809987841942829
1679940327.244986,178.73476342383196,-0.15865927933789717,-85.40148493410358,12.79171943987644,80.18840026632736,5.810000546672134
1679940327.578228,181.8141889564591,-0.13633268019664652,-84.69188193064177,12.791719439890393,80.18840026609553,5.810015445998655
1679940327.911583,181.81418478885683,-0.13632667610166233,-84.69626962488711,12.79171943991885,80.18840026583037,5.810011066195612
1679940328.244799,181.8141824096287,-0.13633244491146512,-84.69607692953385,12.791719439662607,80.18840026588467,5.810015492717538
1679940328.578094,184.89768429464164,-0.14101249812338731,-84.83863210883118,12.791719439406045,80.1884002659353,5.810020199160054
1679940328.9114,187.99441300899488,-0.0867393288141043,-83.06700003121371,12.791719439664352,80.18840026594418,5.810013838663226
1679940329.244706,187.99441461193274,-0.086730791015273,-83.06167889458108,12.79171943964667,80.18840026567759,5.810017878493272
1679940329.577972,191.06829886528766,-0.1866408363391596,-85.0117931510531,12.791719439745727,80.18840026581154,5.810040820100839
1679940329.911282,191.068302707606,-0.18664848708054532,-85.01354297590538,12.791719440005911,80.18840026580808,5.810046235984123
1679940330.244578,191.06830980267563,-0.1866522131507018,-85.01714542963516,12.791719440252558,80.18840026588342,5.810053057776271
1679940330.577781,191.06829924874603,-0.18664788507747626,-85.03363845757528,12.791719439993136,80.18840026591279,5.8100481432404285
1679940330.911218,191.0682943276172,-0.18665330021914942,-85.02709504785798,12.791719440250676,80.18840026593097,5.810054649755558
1679940331.244483,194.16200564010492,-0.1847994547684482,-84.91875138519038,12.791719440438886,80.18840026575444,5.810062205839103
1679940331.57775,194.16200174387853,-0.18479697770546377,-84.90645028862436,12.79171944037342,80.18840026549873,5.810056315275426
1679940331.911022,194.1619944953731,-0.1847891818654029,-84.90575773355872,12.791719440542996,80.18840026529294,5.810053707061532
1679940332.244332,194.1619976965948,-0.18478373564655737,-84.89601892988085,12.791719440429675,80.18840026505521,5.810047824279025
1679940332.577577,194.16200017798295,-0.18478929049883847,-84.8879194248374,12.791719440174433,80.18840026499078,5.810044406158984
1679940332.910942,194.16199346265293,-0.18479269661024228,-84.87513819088454,12.79171943991908,80.18840026492593,5.810041190631469
1679940333.244106,194.16199593443324,-0.18478574266471048,-84.86409455226088,12.791719439846895,80.18840026467153,5.810035605592569
1679940333.577481,194.1619964669597,-0.18477878978659965,-84.87034831464457,12.791719439821884,80.18840026440772,5.810030134249471
1679940333.910668,194.16198910934102,-0.18477237561880067,-84.88659279556038,12.791719440051807,80.18840026427473,5.810028557523227
1679940334.243938,194.1619895632718,-0.18477216990456805,-84.88846265911668,12.791719439842824,80.18840026411489,5.810023842545981
1679940334.577211,197.2600934274938,-0.23065818262513518,-86.50904584288722,12.791719439904965,80.18840026385281,5.810024903631502
1679940334.910522,197.2600874812027,-0.23065616468348557,-86.50103026775571,12.791719439841614,80.18840026410962,5.810030512458173
1679940335.243843,197.26008179794133,-0.230664559372668,-86.49132441778706,12.79171943982002,80.18840026407997,5.8100595279752145
1679940335.577113,197.26008291922648,-0.2306701168746316,-86.48226323866047,12.791719439785236,80.18840026412272,5.810088193065013
1679940335.910397,197.2600815725853,-0.2306691098764649,-86.48731179961986,12.791719439720868,80.18840026434223,5.810103659756136
1679940336.243726,200.3463501541293,-0.22448173514339845,-86.24861731661213,12.791719439623414,80.18840026417931,5.810124367571025
1679940336.577017,200.34634437367876,-0.22448159737431153,-86.24516274859697,12.791719439665465,80.18840026393006,5.810114172664402
1679940336.910379,203.43407040812738,-0.2471449000547417,-87.0204164788134,12.791719439573907,80.18840026396856,5.810087007984093
1679940337.243684,203.43407094125692,-0.24714796882659246,-87.02038449137552,12.791719439412578,80.18840026409454,5.810105778944803
1679940337.576812,200.30963011940852,-0.15583620848308755,-89.79339986437606,12.791719439437326,80.1884002639061,5.810126560197172
1679940337.910106,203.41927015738284,-0.20895505200217984,-91.82041550432757,12.791719439523627,80.1884002639041,5.810154251178653
1679940338.243376,203.41926669032426,-0.2089602180577118,-91.80883340854096,12.791719439708698,80.18840026396909,5.810173974482528
1679940338.576631,203.41925848426683,-0.20895568590529742,-91.82089855311169,12.791719439509718,80.18840026408056,5.810158909890978
1679940338.909939,203.41926206809975,-0.20895267713982957,-91.82613239688796,12.791719439564547,80.18840026431762,5.8101715075396925
1679940339.243281,203.41926675443042,-0.20895330763777822,-91.80509929456208,12.791719439672018,80.18840026451444,5.810187631297247
1679940339.576525,203.41926697437773,-0.2089497082354568,-91.80251962858803,12.791719439709322,80.18840026476208,5.810198494735858
1679940339.909772,203.41925960795962,-0.20894232938246773,-91.82304677269708,12.791719439517259,80.18840026490288,5.810185351590794
1679940340.24314,206.5111487202443,-0.24800471768007193,-93.15990548425201,12.791719439595605,80.18840026509116,5.81020445585774
1679940340.57632,206.51114621660926,-0.24800845509433073,-93.14659801501296,12.791719439718117,80.18840026489514,5.81018958042209
1679940340.909865,206.5111431456659,-0.2480148338432175,-93.13205383960226,12.791719439848643,80.18840026481531,5.810165615108047
1679940341.242995,209.60409085970502,-0.3128018917089502,-94.96291542765381,12.791719439825957,80.18840026490439,5.810138079742456
1679940341.576278,209.60408435706762,-0.3128044026015998,-94.95417186824815,12.7917194397283,80.18840026509105,5.810119899882568
1679940341.909501,209.60408344001084,-0.3128036578906514,-94.95730570899657,12.791719439668018,80.18840026531008,5.810104152465747
1679940342.242803,209.60409339625437,-0.3127981434236298,-94.97398674374959,12.791719439629993,80.18840026554346,5.810090074459379
1679940342.576116,209.60408944979983,-0.31279367096686284,-94.97975371383048,12.79171943975426,80.18840026578142,5.810091268332781
1679940342.909355,209.60408326769831,-0.3127970917310774,-94.96944219503182,12.791719439615013,80.18840026591535,5.81007103893422
1679940343.242651,209.60407938438462,-0.312800628241092,-94.9503467008242,12.791719439539909,80.18840026612,5.810053856970419
1679940343.575913,212.69858258060867,-0.27107085227602723,-93.48162182126187,12.791719439783162,80.18840026621257,5.810059580555752
1679940343.909262,215.8059749421983,-0.232424593614028,-91.7780726535126,12.791719439532052,80.18840026625297,5.810051395992338
1679940344.242469,215.8059766852392,-0.23242729545121496,-91.77920225725757,12.791719439667741,80.18840026641998,5.810068828021104
1679940344.57581,212.71715854028326,-0.3101605318214661,-89.8482483420853,12.79171943985882,80.18840026623926,5.810073942167095
1679940344.909106,215.82535210869693,-0.3688324867212983,-91.9633107057024,12.79171943992879,80.18840026621997,5.810102113535972
1679940345.242409,218.93920111353074,-0.40656384285114067,-93.85898870015906,12.7917194398746,80.18840026639003,5.810124047598313
1679940345.575666,222.05409563395182,-0.41855066382557354,-94.7124636608127,12.791719439929958,80.18840026664986,5.8101190823499005
1679940345.908908,222.0541141838844,-0.41855069605881856,-94.73939671831818,12.791719439799108,80.18840026682663,5.81010234658303
1679940346.242241,222.0541133700885,-0.41855094430325523,-94.7484556552858,12.791719439746407,80.18840026705038,5.810087054702976
1679940346.575509,222.05410119210515,-0.4185514943987179,-94.72885183533145,12.791719439935648,80.18840026694625,5.810104138224015
1679940346.908768,218.92692109182533,-0.337656562276494,-97.46827606428508,12.791719440129524,80.18840026678339,5.810094906868362
1679940347.24215,222.06008749185676,-0.2734963092560535,-94.53560582534621,12.791719440303714,80.18840026698217,5.810099473856238
1679940347.575447,218.92611741590457,-0.1795455059826348,-97.47480956557753,12.791719440516838,80.18840026682669,5.8100953424563935
1679940347.908629,218.9261073656728,-0.1795465084286149,-97.45445934209714,12.791719440521794,80.18840026656115,5.810090193913735
1679940348.241897,218.9261099706898,-0.1795433689900403,-97.45191466911939,12.791719440413118,80.18840026632049,5.810084657616336
1679940348.575265,218.92611691259654,-0.17954310267255777,-97.47789421599018,12.791719440243758,80.18840026611852,5.810079551096866
1679940348.908463,221.99930789227975,-0.2336400176311441,-98.86960602391018,12.791719440129576,80.18840026587513,5.810079286635518
1679940349.241779,221.99932249388127,-0.23364239123535044,-98.89701502584474,12.791719440100541,80.18840026605373,5.810101002852291
1679940349.575119,221.9993316743579,-0.23363840903717573,-98.89523586378472,12.79171944004646,80.18840026630681,5.810109194185567
1679940349.908388,221.9993192982677,-0.23363781100097514,-98.88214525374383,12.791719440056967,80.18840026618886,5.810082876429598
1679940350.241602,221.9993067672807,-0.23363938406132276,-98.85657889466829,12.791719440074834,80.18840026602435,5.81005974672899
1679940350.575035,221.999294377833,-0.23363705264381177,-98.82748533137372,12.791719440021453,80.18840026617713,5.810036338067549
1679940350.908196,221.99929299729126,-0.23363503129518293,-98.82009155103013,12.791719439965432,80.18840026643925,5.810039445760917
1679940351.241528,221.99930382383133,-0.23363544243149703,-98.82706589318892,12.791719439937541,80.18840026664923,5.8100575740000275
1679940351.574779,221.99930986027414,-0.2336290477779305,-98.84542620417461,12.791719439872551,80.18840026691048,5.810058874799369
1679940351.908064,221.99930957624227,-0.23362663570967832,-98.85103770221359,12.791719439811384,80.18840026717238,5.810060737101658
1679940352.241314,221.9993020072358,-0.23362839614263495,-98.8476460018812,12.791719439781986,80.18840026737863,5.810079337141885
1679940352.574603,221.9992980225714,-0.2336298694617046,-98.834847085446,12.791719439737376,80.18840026762709,5.810089630388168
1679940352.907933,221.99929558106533,-0.23363028046310275,-98.8319139906978,12.791719439698207,80.18840026786246,5.810103272961156
1679940353.241234,221.999293275787,-0.23362863569352285,-98.82960263105635,12.791719439644586,80.18840026812126,5.810109043162269
1679940353.57455,221.99928309173347,-0.23362871708809416,-98.81834646173716,12.791719439577296,80.18840026835561,5.810096590520547
1679940353.90777,221.9992798371581,-0.23362756361175457,-98.80268551087003,12.791719439513802,80.18840026861265,5.810091144131181
1679940354.241102,221.99927475046334,-0.23362660393057325,-98.78097575876657,12.791719439454548,80.18840026887483,5.810088957057385
1679940354.574347,221.9992670257284,-0.233628213620174,-98.76432331684603,12.791719439419388,80.18840026912012,5.810100510999338
1679940354.907598,221.99926561288174,-0.23362893183526942,-98.75938933359356,12.791719439388826,80.18840026935658,5.810114201302517
1679940355.240923,221.9992682235739,-0.23362674807974337,-98.76572106535703,12.791719439347338,80.18840026960488,5.810124691331222
1679940355.574202,221.99926992967949,-0.23362651869123413,-98.78560980884066,12.791719439319843,80.18840026982564,5.810141253298333
1679940355.907518,221.99927368523535,-0.23363395864843764,-98.80434936968727,12.79171943932369,80.18840026996656,5.810166227323564
1679940356.240736,221.9992826315337,-0.2336346600339189,-98.83072474536206,12.791719439301914,80.1884002701593,5.810186579809313
1679940356.574023,221.99928322095036,-0.2336379362503322,-98.85384056684187,12.791719439300941,80.18840027028197,5.810212669967476
1679940356.907511,221.99928288112542,-0.23363785125523193,-98.86224889104462,12.791719439260445,80.18840027050861,5.8102279151801985
1679940357.24066,221.99927495746883,-0.23363778217746647,-98.84718556625326,12.791719439201286,80.18840027077106,5.810226122631005
1679940357.573909,221.99926608736277,-0.23363730677130598,-98.82341929681358,12.791719439164538,80.18840027080584,5.810197362885931
1679940357.907252,221.99925965080706,-0.233633307638611,-98.78943864907961,12.791719439101273,80.18840027101857,5.810180760763598
1679940358.240436,221.99924917759304,-0.23363062225356532,-98.75887637497426,12.791719439036397,80.18840027126704,5.8101718943346725
1679940358.573774,221.9992471559552,-0.2336297384799585,-98.73781882050704,12.791719438986002,80.18840027152986,5.810175448875427
1679940358.907133,221.99924206851225,-0.2336291150899641,-98.72363950346723,12.79171943892776,80.188400271793,5.810175894917705
1679940359.240343,221.99924146689312,-0.2336294220471175,-98.72333501430926,12.7917194389004,80.18840027203039,5.810189475415668
1679940359.573657,221.9992443127888,-0.2336322105524924,-98.72927608639196,12.79171943889921,80.18840027222001,5.810210310259882
1679940359.906993,221.99924954994938,-0.23363261415588546,-98.74548678523239,12.791719438883293,80.1884002724319,5.810228352584648
1679940360.240233,221.99925208819928,-0.2336346724027965,-98.76492323095601,12.791719438880074,80.18840027261135,5.810250223612204
1679940360.573495,221.99925662738846,-0.23363425274339777,-98.78080112508955,12.791719438853232,80.18840027283278,5.810266686331447
1679940360.906853,221.9992557966436,-0.23363312570787398,-98.78617488494251,12.79171943880048,80.1884002730911,5.810272791758314
1679940361.240068,225.0429948974759,-0.2599551269969079,-99.29760141734468,12.79171943888702,80.1884002729227,5.81029357594151
1679940361.573346,225.0429911926305,-0.2599547344242779,-99.2890295100391,12.791719438941055,80.18840027266252,5.8102984971956655
1679940361.90659,228.0677728132934,-0.22981686094337914,-98.76447810498499,12.791719439120012,80.18840027285817,5.8102946552109005
1679940362.239888,228.06776397902144,-0.22981609349417428,-98.75069693042765,12.791719439045465,80.18840027308153,5.810280448204138
1679940362.573171,228.0677592572255,-0.22981937350565862,-98.73878674138672,12.791719439020236,80.18840027331656,5.810294554900172
1679940362.906495,228.06775660282864,-0.22982214281834087,-98.72696677219105,12.791719438999209,80.18840027354727,5.810309557313597
1679940363.239782,228.06775440633163,-0.22982128084807849,-98.71638170068248,12.791719438944403,80.18840027381053,5.810311629731832
1679940363.573075,228.0677499770071,-0.2298215410492478,-98.70890904189454,12.791719438882694,80.18840027407278,5.8103108810440505
1679940363.90633,231.11530557722395,-0.2141544740652319,-98.3725790402225,12.791719438746934,80.18840027384975,5.810317659801701
1679940364.239628,231.11530426632652,-0.21415335699336913,-98.37819845814285,12.79171943881281,80.18840027358848,5.810317218661317
1679940364.572925,234.18328472403059,-0.212412762217464,-98.32483037085875,12.791719438833583,80.18840027384881,5.810309884004622
1679940364.906243,234.18328517155945,-0.21241235769176742,-98.32182761213943,12.791719438788757,80.18840027411268,5.810313447131654
1679940365.239516,234.18328338887437,-0.21241350975572854,-98.31942829086609,12.791719438774177,80.18840027437197,5.810321372837621
1679940365.572838,234.18328222590944,-0.21241258217644737,-98.31803568641205,12.791719438714336,80.18840027463446,5.810322726165949
1679940365.906075,237.25115769972192,-0.1917722682839933,-97.75871834297345,12.791719438516699,80.18840027445596,5.810324792928731
1679940366.239418,237.25115614813,-0.19177121677287567,-97.75701660813566,12.791719438609558,80.18840027420381,5.8103230920008855
1679940366.572642,237.25115456684202,-0.19176898242966106,-97.7572530934574,12.79171943873459,80.18840027396601,5.8103230498745955
1679940366.905998,237.2511504926096,-0.19177013402183277,-97.74879056017313,12.79171943877136,80.1884002737018,5.810318749525338
1679940367.239274,237.25114764377173,-0.19176757842608277,-97.74214772386927,12.791719438924872,80.18840027348244,5.8103202755905645
1679940367.572555,237.25114352075101,-0.19176755600509693,-97.73989069608335,12.791719438985876,80.18840027322173,5.810316932022413
1679940367.905917,240.3231716265505,-0.20611537390825024,-98.13906376292262,12.791719438836608,80.18840027343781,5.810311024234626
1679940368.239076,240.32317007326932,-0.20611319664047148,-98.14065205417381,12.791719438713491,80.18840027367142,5.810305636029699
1679940368.572303,240.3231667158725,-0.20611164012913627,-98.13892634899466,12.791719438583073,80.18840027389852,5.810299170629549
1679940368.905742,243.38765165690086,-0.1956232086961947,-97.85790944322977,12.791719438445059,80.18840027367006,5.810302261903915
1679940369.238969,243.3876485117329,-0.19562744460744458,-97.85400622212326,12.791719438426284,80.18840027340946,5.810294978919547
1679940369.57224,243.38764468865682,-0.1956275628751429,-97.84258654358817,12.791719438548762,80.18840027317054,5.810296204155689
1679940369.905455,243.38763786348386,-0.19562853218943982,-97.83169358653089,12.791719438700904,80.18840027295164,5.810299330889583
1679940370.238756,243.3876321468832,-0.1956285071083985,-97.8373163038745,12.791719438867108,80.1884002727444,5.810303027867355
1679940370.572027,243.38762938226947,-0.19562785386992063,-97.83926223466963,12.79171943898688,80.18840027250387,5.810303622858763
1679940370.905308,243.38763095139717,-0.19563036606844772,-97.83611597039572,12.791719438949839,80.18840027224729,5.810295551836501
1679940371.238672,243.38763172899368,-0.1956348742594577,-97.8313574303147,12.791719438940175,80.18840027198488,5.81028884000422
1679940371.571909,243.38762876520863,-0.1956342667912689,-97.82629648525604,12.791719439061678,80.18840027174528,5.810289575461578
1679940371.905196,243.3876228872101,-0.19563926874739496,-97.82820913616229,12.791719438976815,80.18840027150712,5.810279518946737
1679940372.238518,243.38762174202344,-0.19563511138409795,-97.82367882780773,12.791719439160877,80.18840027131908,5.810284673247949
1679940372.571695,246.46624228024905,-0.19970432135628946,-97.93058181458818,12.791719439157685,80.18840027158639,5.810280728981388
1679940372.907927,246.4662403830264,-0.19970362995449417,-97.9221063784049,12.791719439063131,80.18840027183838,5.81028074327467
1679940373.238316,246.46623986102145,-0.19970288010768675,-97.92377471435266,12.791719438962122,80.18840027208775,5.810280547503558
1679940373.571615,246.46624085590156,-0.19970004923915646,-97.92549049790156,12.791719438815477,80.18840027230945,5.810276639604733
1679940373.904865,246.46624119754136,-0.19970068631363508,-97.92348943114388,12.791719438758232,80.1884002725715,5.810279538090364
1679940374.23822,246.46624067774715,-0.19969924126814997,-97.92635213363393,12.791719438699511,80.1884002728332,5.810282432685408
1679940374.571465,246.46623893341112,-0.1997015190214235,-97.93184591011747,12.791719438690833,80.1884002730966,5.810288693831267
1679940374.904789,246.46623520323897,-0.19970513608900667,-97.9318319310303,12.79171943869329,80.1884002733588,5.8102955843652015
1679940375.238046,246.46624256581177,-0.19971517214574944,-97.91344886502431,12.791719438743947,80.18840027360869,5.81030509169931
1679940375.571425,246.46625301087434,-0.19972816924599973,-97.8879709822138,12.791719438794075,80.18840027385967,5.810314293250887
1679940375.904743,246.46625802241414,-0.19973788601541648,-97.86013927940078,12.791719438810478,80.18840027412087,5.81032139208435
1679940376.237861,249.57374230931146,-0.2070396743892045,-98.23766203342144,12.791719438889498,80.18840027386908,5.8103272348662856
1679940376.571273,252.6836385327994,-0.22306239791568996,-99.1431257110808,12.791719438683456,80.18840027401824,5.8103185107197275
1679940376.904589,252.68364517822778,-0.22307302873074386,-99.13552878884693,12.791719438614626,80.18840027426566,5.810327360935853
1679940377.237774,252.6836521598093,-0.2230784438637981,-99.12453906354483,12.791719438565778,80.18840027452741,5.810322762482135
