Timestamps,Roll_N,Pitch_E,Yaw_U,Latitude,Longitude,Altitude
1679940395.832872,1.54,1.96,13.87,12.791229248,80.189743042,-47.61
1679940396.166037,1.540007737625419,1.960000122230805,13.885712393900626,12.791229248239638,80.1897430418941,-47.60999520616776
1679940396.499517,1.5400156423896207,1.9600037937302701,13.893613203499566,12.791229248482496,80.18974304179856,-47.61000054861356
1679940396.832679,4.59923075756768,1.963081708485652,13.981909082083101,12.791229248737718,80.18974304186767,-47.609998427556924
1679940397.165813,4.599230186670162,1.9630791770175355,13.969754837847638,12.791229248966008,80.18974304178266,-47.61001004347081
1679940397.499333,4.599222092847796,1.9630752660745523,13.943068906687946,12.791229249212256,80.18974304169053,-47.610014019254756
1679940397.832462,4.599217368696087,1.9630724439149383,13.924977138946538,12.79122924945467,80.18974304160018,-47.610020541177576
1679940398.165787,4.599213978706656,1.9630732635435622,13.914695769834546,12.791229249697578,80.18974304149974,-47.610016423265904
1679940398.500145,4.599202370394762,1.9630729361770858,13.912329292367168,12.791229249939784,80.18974304139742,-47.61001234711968
1679940398.832456,4.599192825672966,1.963070249750255,13.915412316801898,12.791229250184807,80.18974304129533,-47.610011753242674
1679940399.165327,4.599182459492101,1.963067773711577,13.915947816967588,12.791229250430144,80.18974304119395,-47.610011337861124
1679940399.498659,4.59918371427054,1.9630676669342204,13.9204444060944,12.791229250675304,80.1897430410921,-47.610011706523785
1679940399.831757,4.599185546139014,1.963066526486346,13.927625786321833,12.791229250913013,80.18974304099869,-47.61001967718377
1679940400.165063,4.599188010278773,1.9630679556484973,13.922466798452788,12.791229251158688,80.18974304089832,-47.61001893996154
1679940400.498392,4.59918673781534,1.963067415077194,13.908744490652715,12.79122925140554,80.18974304080203,-47.610020649475665
1679940400.83163,4.599189296425127,1.9630681178360088,13.892945908948242,12.791229251652792,80.18974304070598,-47.61002165712399
1679940401.164979,4.599195898146812,1.963067583164249,13.88494375844248,12.79122925188727,80.18974304062144,-47.610031702121724
1679940401.498306,4.5991994395301425,1.9630687343614965,13.882389507468686,12.791229252132077,80.18974304052033,-47.61002970698001
1679940401.831569,4.599198424677563,1.9630696547247963,13.88586315452812,12.791229252366978,80.18974304041639,-47.610022268534394
1679940402.164778,4.59919640023979,1.9630691858377312,13.89118076925488,12.791229252611972,80.18974304031423,-47.61002165439936
1679940402.498181,4.599196311157047,1.9630692037427788,13.89603404163595,12.791229252855864,80.1897430402111,-47.61001950556127
1679940402.831423,4.599195202253325,1.9630704439618099,13.895859122239276,12.791229253097498,80.18974304010831,-47.61001516324037
1679940403.16482,4.5991966246654945,1.9630701105430768,13.89215286876959,12.79122925334354,80.18974304001061,-47.610017305308595
1679940403.497892,4.599200783840932,1.963071425111317,13.888686211309045,12.791229253587183,80.18974303990905,-47.6100141623619
1679940403.831446,4.599203094863496,1.963076128075037,13.88492488780265,12.791229253792553,80.18974303981187,-47.60999898145302
1679940404.164566,4.59920507797664,1.963072662205584,13.8742600765869,12.791229254016152,80.18974303973602,-47.61001233461093
1679940404.497901,4.59921093785491,1.963068443485388,13.864207906779715,12.79122925421273,80.18974303967654,-47.610030865857816
1679940404.831147,4.599217128041212,1.96306931781908,13.857910176877542,12.791229254458711,80.18974303958208,-47.610034371914814
1679940405.164761,4.59921950676619,1.9630732016309134,13.85101312564586,12.79122925463314,80.18974303949211,-47.610014617196654
1679940405.497616,4.599221039024428,1.9630763302078416,13.85027511125866,12.791229254819346,80.1897430393975,-47.60999650436523
1679940405.831039,4.599221047194496,1.963076414218013,13.852257102164543,12.791229255063152,80.18974303929538,-47.60999375109279
1679940406.164308,4.5992219786312445,1.9630742410203657,13.853189884580761,12.791229255307375,80.18974303920156,-47.609998674163364
1679940406.497621,4.599222697716971,1.96307702808058,13.857432383136222,12.791229255523602,80.18974303909933,-47.609985923726484
1679940406.830785,4.599226124338876,1.9630777787270302,13.85049348826671,12.791229255768734,80.18974303899958,-47.609983625887715
1679940407.164112,4.59923084867936,1.9630740229369232,13.83424461499018,12.791229255986982,80.18974303893133,-47.609998462231
1679940407.497482,4.599234682302296,1.9630731476691852,13.830454709489986,12.79122925623142,80.18974303884009,-47.610003812354876
1679940407.830658,4.599234043694832,1.9630738791420987,13.834014843524844,12.791229256468915,80.18974303873631,-47.60999743382882
1679940408.163902,4.599227427703753,1.9630727516415367,13.84155654835319,12.791229256701602,80.18974303863138,-47.60998933912189
1679940408.497229,4.599228607272481,1.963072538060295,13.844905020898901,12.79122925694605,80.1897430385295,-47.609987260036895
1679940408.830495,4.599229442350145,1.9630739148566592,13.847685340831308,12.791229257180277,80.18974303842569,-47.60997954732615
1679940409.163839,1.5141367629341618,1.9255441293921565,15.009199959793204,12.791229257018653,80.18974303861816,-47.60996946793175
1679940409.497048,1.5141417301621751,1.9255440041570888,15.001047005741707,12.791229256912008,80.18974303870817,-47.60994450365875
1679940409.830387,1.5141450356007793,1.9255456818867505,14.997144681442967,12.791229256745718,80.1897430388012,-47.6099240699028
1679940410.163655,1.5141477036283253,1.9255446822717759,14.994931541363032,12.791229256645611,80.18974303889097,-47.609898765605266
1679940410.496952,1.5141484937739131,1.9255454839724864,14.993547285165887,12.791229256514711,80.18974303898344,-47.60987536664451
1679940410.830252,1.514147460442826,1.9255458254795756,14.994535285384089,12.791229256349723,80.1897430390773,-47.6098548507617
1679940411.163702,1.5141484543924606,1.9255470699801158,15.00191890306537,12.791229256144712,80.18974303916981,-47.609839271437636
1679940411.496773,1.5141495544839023,1.9255418864346465,14.999361973996171,12.791229256114699,80.18974303924914,-47.609811473581765
1679940411.830109,1.514154476158378,1.9255375826592536,14.983377577363001,12.79122925617038,80.18974303930838,-47.60978356970816
1679940412.163555,-1.5687045635187378,1.8871305791870165,16.11639851786444,12.79122925626889,80.18974303931827,-47.609810735451326
1679940412.496621,-4.621614181115236,1.8600763892060335,16.689141706799425,12.79122925635193,80.18974303917501,-47.60978767817689
1679940412.830053,-4.621609209217854,1.8600770830354354,16.69161488765404,12.791229256577104,80.18974303925096,-47.60977465949117
1679940413.163201,-4.621609813186411,1.8600789051416238,16.703449580712864,12.791229256724645,80.18974303932129,-47.60975156595211
1679940413.496488,-4.621611615892533,1.860079008508791,16.716694827827624,12.791229256919095,80.18974303939504,-47.609733369074306
1679940413.829809,-4.621615741858399,1.8600796149986445,16.724577579578998,12.791229257099172,80.18974303946877,-47.6097134435903
1679940414.163178,-7.699814784092779,1.8694843576456377,16.423072010599224,12.791229256920282,80.18974303949709,-47.609734817811464
1679940414.496363,-7.699817383061842,1.869483094973443,16.423927229369795,12.791229256735182,80.18974303941827,-47.60975393349242
1679940414.82981,-7.69981741820585,1.8694787118322878,16.407615672728493,12.791229256510288,80.1897430393403,-47.60976686551023
1679940415.162936,-7.699811168687936,1.8694821035347866,16.39385019002741,12.791229256431452,80.18974303926504,-47.60979360809068
1679940415.496173,-10.799066828910869,1.962285711548715,14.094421985587257,12.791229256530771,80.18974303913281,-47.60977056233335
1679940415.829527,-10.799064308662668,1.9622852161973179,14.087190166850874,12.79122925628628,80.18974303923298,-47.60976772122705
1679940416.162824,-10.799059946049075,1.9622817311364824,14.080021333113098,12.791229256057447,80.18974303932508,-47.60975689970853
1679940416.49605,-10.79905785785832,1.962282227894909,14.089263624630554,12.791229255825305,80.189743039427,-47.60976561713678
1679940416.829274,-10.799057986152864,1.9622866105183345,14.094004807503607,12.79122925563517,80.18974303951128,-47.609783832249995
1679940417.162744,-10.799059456528418,1.9622916019994467,14.0932950906513,12.791229255469176,80.18974303958441,-47.609805226626094
1679940417.495922,-10.799049498769543,1.9622956052225933,14.091140478036793,12.791229255249059,80.18974303967843,-47.609817906504766
1679940417.829345,-10.799049660650507,1.9622940734675443,14.085329588078553,12.791229255003701,80.18974303977983,-47.609817928424576
1679940418.162521,-13.870256567967278,1.940064294410432,14.683211659569116,12.791229255264511,80.18974303973367,-47.60981733428983
1679940418.495842,-13.870250447770767,1.940063564930938,14.67808252320331,12.791229255436024,80.1897430396401,-47.609837201795585
1679940418.82903,-13.870248156782411,1.9400614802677558,14.678362055014418,12.791229255622097,80.18974303954397,-47.60985523735049
1679940419.162376,-13.870246866922553,1.9400607464459176,14.673808394575568,12.79122925585531,80.18974303944927,-47.6098645460342
1679940419.495836,-13.870245673138786,1.9400613118499588,14.669750567503298,12.791229256095557,80.18974303935616,-47.609871571172434
1679940419.828918,-13.870243027679882,1.9400615671737527,14.667488748461478,12.791229256324241,80.18974303926012,-47.60988202114901
1679940420.162223,-13.870244093712865,1.940061891962699,14.663953560549498,12.791229256552125,80.18974303916428,-47.60989270609217
1679940420.495584,-13.870242419915131,1.9400639436414497,14.671927729789981,12.791229256801659,80.18974303907477,-47.60989392562131
1679940420.828748,-13.870239456394449,1.9400639506966777,14.68139045995655,12.791229257051286,80.18974303898537,-47.609895004890696
1679940421.162066,-13.870237640201955,1.9400640386822363,14.677718787591136,12.791229257273814,80.18974303888918,-47.609906957949846
1679940421.495653,-13.870234887416276,1.9400637659912396,14.672387204277086,12.791229257512951,80.18974303879604,-47.60991443206118
1679940421.828661,-13.870230095334449,1.9400666212800455,14.669365265497648,12.791229257762383,80.18974303870807,-47.6099167356585
1679940422.162112,-13.870228262553306,1.940065392681269,14.666303700968973,12.791229257974555,80.18974303861134,-47.609930761032786
1679940422.495307,-13.870228445580084,1.9400633233053137,14.656114380441744,12.791229258181664,80.18974303851623,-47.609945805572494
1679940422.828583,-13.870224006379537,1.9400635803019204,14.64450081145695,12.791229258418408,80.18974303842344,-47.60995420414244
1679940423.161847,-13.870224165804887,1.9400643246156375,14.646542558338481,12.791229258665558,80.1897430383318,-47.60995758407832
1679940423.495127,-16.86396952494663,1.9642517974648048,14.328798132353025,12.791229258444798,80.18974303818388,-47.60995947304766
1679940423.828406,-16.86396861949176,1.96424932260154,14.33180431171784,12.791229258199897,80.18974303828642,-47.609959469105526
1679940424.161614,-16.863962085039162,1.964253131985711,14.333186499253983,12.791229258004403,80.18974303835427,-47.60997780079382
1679940424.495014,-16.863960241119297,1.9642514037992682,14.334859367372964,12.791229257781858,80.1897430384555,-47.60996635190984
1679940424.828189,-16.863953177177226,1.964252834399022,14.325090135547462,12.79122925753952,80.1897430385486,-47.609972437284874
1679940425.161573,-16.863948186332877,1.9642584859899486,14.312819824770278,12.791229257372681,80.18974303859981,-47.609994490543826
1679940425.494809,-16.863946195617523,1.9642576662220959,14.297994281640456,12.791229257127581,80.18974303869923,-47.60999199890501
1679940425.828282,-16.86394617422475,1.9642539271090136,14.295264432698898,12.79122925688747,80.18974303880192,-47.60998670237298
1679940426.161342,-16.863944017494777,1.9642593409555995,14.302697748641375,12.79122925674764,80.18974303884681,-47.61001109357437
1679940426.494693,-16.863944503478287,1.9642527873481526,14.296635134072172,12.791229256521978,80.18974303894613,-47.61000021099213
1679940426.82786,-16.86394197390425,1.9642480751964342,14.276576551561453,12.791229256293537,80.1897430390424,-47.60998971919856
1679940427.161161,-16.863932094013173,1.9642506748688033,14.25770519095179,12.79122925604685,80.1897430391394,-47.60999123940214
1679940427.494579,-16.86392954246458,1.9642518139182052,14.24806809208965,12.791229255803763,80.18974303923646,-47.60999611105813
1679940427.827785,-19.926267845204407,1.9850491131851875,13.724487024838925,12.791229255923453,80.18974303941566,-47.60997867225951
1679940428.161151,-19.92626583070745,1.9850516491393209,13.735767711645991,12.791229255992562,80.18974303934209,-47.60995154869418
1679940428.494336,-19.926265323485314,1.9850538447278834,13.753660959725051,12.791229256065291,80.18974303926751,-47.609924573118214
1679940428.82771,-19.926267067887053,1.9850559863898418,13.763380323379236,12.79122925614062,80.18974303919435,-47.609897639616996
1679940429.160922,-19.9262655637539,1.9850575914307151,13.761423195709373,12.791229256277994,80.18974303910338,-47.60987463113561
1679940429.494373,-19.926261610747552,1.9850577542239303,13.755856394855268,12.791229256457079,80.18974303900235,-47.609856053118286
1679940429.82761,-19.926256086197863,1.985057702226562,13.744115660572666,12.791229256662055,80.18974303889792,-47.60984138310288
1679940430.160854,-19.926250747272068,1.985056783571822,13.730529940912774,12.791229256890366,80.18974303879249,-47.609831948504244
1679940430.49412,-19.926247132536712,1.9850565123691548,13.729174670040733,12.79122925708157,80.18974303868727,-47.60981521278892
1679940430.827359,-19.926240492469713,1.985055773232379,13.722582621144172,12.791229257273702,80.18974303858299,-47.60979854091349
1679940431.160642,-19.92624064051204,1.9850568797441313,13.722962055765457,12.791229257387455,80.18974303849598,-47.609773837211264
1679940431.49386,-19.92623933758004,1.985057757835033,13.727849017461788,12.79122925752132,80.18974303840247,-47.60975069428023
1679940431.827356,-19.926242942768308,1.9850581639304696,13.73430864556501,12.791229257647464,80.18974303831125,-47.60972692180647
1679940432.160541,-19.926244124286463,1.9850587822433299,13.72932988251809,12.791229257805902,80.1897430382137,-47.60970598008787
1679940432.493792,-19.92624302613031,1.9850582421215608,13.723510949435111,12.791229257985409,80.18974303811152,-47.60968752627213
1679940432.827188,-19.926238534643446,1.9850592581909672,13.71889294438037,12.791229258153722,80.18974303801117,-47.60966771443238
1679940433.160303,-19.92623570527033,1.9850606260339019,13.711869970551994,12.791229258290473,80.18974303791862,-47.609644735548876
1679940433.493586,-19.926230986255636,1.9850611050831375,13.705742327594182,12.791229258460383,80.18974303781778,-47.60962511937714
1679940433.826963,-19.926229554632755,1.9850614239016686,13.706744355186462,12.791229258619637,80.18974303771765,-47.60960439737207
1679940434.160282,-19.92623026387069,1.985062000355863,13.710396210522587,12.791229258750107,80.18974303762437,-47.609581006946044
1679940434.49366,-19.926234602144387,1.985063485101198,13.717132580044423,12.79122925885033,80.18974303753983,-47.60955549546338
1679940434.826786,-19.926235668850232,1.9850637563821638,13.720063118051655,12.791229258981073,80.18974303744719,-47.609532094480016
1679940435.160116,-19.926237800515565,1.9850614340994703,13.729746534214406,12.791229259177037,80.18974303733864,-47.60951631079856
1679940435.493326,-19.92623495704691,1.985059935515767,13.729892258403428,12.791229259384176,80.1897430372309,-47.609502310274905
1679940435.826676,-19.92622905770457,1.9850592219570482,13.712074124299368,12.791229259607631,80.18974303712632,-47.60949144880736
1679940436.160034,-19.92622137880088,1.9850592285680129,13.687465998266175,12.791229259841483,80.18974303702416,-47.60948334647391
1679940436.493265,-19.926217823342242,1.9850610796826715,13.672145256962514,12.791229259973587,80.18974303693236,-47.60945999999059
1679940436.826585,-19.926211550500227,1.9850625251637533,13.66710915858035,12.79122926012707,80.18974303683316,-47.60943869915536
1679940437.159762,-19.926210212930954,1.9850640074420205,13.677917854459457,12.791229260231471,80.18974303674382,-47.60941358785276
1679940437.493158,-19.926213592248835,1.9850660136233782,13.687618409964193,12.79122926030603,80.18974303666478,-47.6093868233525
1679940437.826423,-19.926215286715447,1.9850629182833597,13.691337172456036,12.791229260498358,80.18974303655739,-47.60937041134582
1679940438.159884,-19.92621582237767,1.9850616826047407,13.688308269432673,12.791229260674696,80.18974303645402,-47.609351663316225
1679940438.492983,-19.926212604965535,1.9850629100052295,13.676988852039292,12.79122926081231,80.1897430363603,-47.60932880196755
1679940438.826248,-19.926208054745597,1.9850640313618793,13.671174803334692,12.79122926096703,80.18974303626119,-47.60930760800671
1679940439.15961,-19.926195691095817,1.98506195493008,13.657407905121556,12.791229261207665,80.18974303615919,-47.60930244057817
1679940439.492887,-19.926189106292796,1.9850561294369053,13.64518318481374,12.791229261456005,80.18974303606645,-47.609303778498806
1679940439.826067,-19.926190479725996,1.985054491174712,13.63429343867903,12.791229261640188,80.18974303596225,-47.60928603337029
1679940440.159411,-19.926192298682547,1.985061091448903,13.638836324658065,12.79122926163785,80.18974303590714,-47.60925736166528
1679940440.4927,-23.002413895950056,2.0825521612916615,11.695829534649532,12.791229261616545,80.18974303602137,-47.60928379280775
1679940440.825973,-23.002414696166856,2.082550511141817,11.708151344137484,12.791229261843382,80.18974303614215,-47.60929129646541
1679940441.159346,-23.00241516851186,2.0825538766640364,11.712858220107526,12.791229262085908,80.18974303621721,-47.60928282738881
1679940441.49247,-23.002415532042825,2.0825504910571477,11.704055334717708,12.79122926226695,80.18974303635079,-47.60929852606413
1679940441.826168,-23.00241022301759,2.082548347976287,11.686051283797179,12.791229262433319,80.18974303648585,-47.60931596683382
1679940442.159174,-23.002400588930882,2.0825464345419036,11.669722371775194,12.791229262561675,80.18974303661587,-47.60933734691663
1679940442.492417,-23.002401053876593,2.082548673974073,11.65228435078642,12.791229262803038,80.18974303672658,-47.609336619188895
1679940442.825697,-26.056916617777038,2.141364721314931,10.44749092225661,12.791229262680657,80.18974303655416,-47.60935462792211
1679940443.159092,-26.05690935286551,2.1413642135829294,10.450261894494963,12.791229262492136,80.18974303640891,-47.60936783021137
1679940443.492763,-26.056910087619734,2.141360846924722,10.448779460459377,12.791229262320867,80.18974303626412,-47.60938369692789
1679940443.825526,-26.056910239283955,2.1413596770858927,10.447716686560307,12.791229262197678,80.18974303612931,-47.60940509711409
1679940444.158849,-26.056906281568857,2.1413577313154835,10.444257306078745,12.791229262057252,80.1897430359896,-47.60942475722853
1679940444.492103,-29.088043298272265,2.1223585175353294,10.776437260379298,12.791229262100638,80.1897430358468,-47.60940037248771
1679940444.825431,-29.088043440949363,2.1223616542601276,10.783051887430641,12.791229262132834,80.18974303590112,-47.60937190433498
1679940445.158657,-29.0880472509515,2.1223659753485125,10.800671647743975,12.791229262138245,80.18974303593862,-47.60934290209991
1679940445.491896,-29.088051664560933,2.1223649994464853,10.812839402836632,12.79122926226313,80.18974303603883,-47.60931947834008
1679940445.825224,-29.08804840766345,2.1223622604643975,10.801247273111196,12.791229262472699,80.18974303618083,-47.6093103798754
1679940446.158587,-29.088041991938617,2.1223610980367433,10.777340647603863,12.7912292626809,80.1897430363258,-47.609301448595275
1679940446.491802,-29.088036894306043,2.1223592695409716,10.75553023844608,12.791229262896145,80.18974303647188,-47.60929517300149
1679940446.825085,-29.088032570909427,2.1223604222259396,10.735651424360107,12.791229263041325,80.18974303659253,-47.60927447296777
1679940447.158451,-32.15389394042194,2.1401786234192715,10.257056895208116,12.79122926297197,80.18974303664707,-47.60930211333978
1679940447.491588,-35.28146338314713,2.185288598875639,7.740404405860623,12.791229263115973,80.1897430364411,-47.60929191267461
1679940447.824916,-38.319502580371214,2.156430933821016,8.305331897586544,12.791229263309647,80.18974303648103,-47.60927241686543
1679940448.1582,-38.31950874645283,2.1564228775575467,8.309607301100833,12.791229263537838,80.18974303634491,-47.6092709175188
1679940448.491577,-38.319506714725115,2.156422834043433,8.28449704888084,12.79122926376695,80.18974303623723,-47.609262035888385
1679940448.824824,-38.319496775079436,2.1564205010742454,8.249429120275977,12.791229263974905,80.18974303609542,-47.609271611912725
1679940449.15896,-38.319490001573755,2.156422215003911,8.225788036778862,12.791229264188399,80.18974303600177,-47.60925758557868
1679940449.491376,-38.31949132606048,2.1564193909201683,8.218539046880199,12.791229264410394,80.18974303588597,-47.60924774797226
1679940449.824756,-38.319492737680925,2.1564140995148873,8.228199944217518,12.791229264634286,80.18974303574197,-47.609247534977044
1679940450.157925,-38.31949060649503,2.1564134381281796,8.234201953688295,12.791229264855884,80.18974303562142,-47.60923827892541
1679940450.491256,-38.31948737463475,2.1564194583171936,8.238164913521587,12.791229264822132,80.18974303570538,-47.609210693105
1679940450.824436,-41.30658712512159,2.169761408480146,8.06161406854132,12.79122926466356,80.18974303561478,-47.609231989089885
1679940451.157847,-41.306583232383126,2.1697609017666024,8.06332877677551,12.791229264470282,80.18974303572605,-47.60924795232965
1679940451.491086,-41.30657858377538,2.1697606760706236,8.070520704155914,12.791229264281702,80.18974303583413,-47.6092648360859
1679940451.824404,-41.306575899071376,2.1697605499630526,8.081502411164701,12.791229264096643,80.18974303593887,-47.60928242767269
1679940452.157663,-41.30657705829319,2.1697605517036753,8.085867438048,12.79122926392427,80.18974303602835,-47.60930242568597
1679940452.490929,-41.30657589764892,2.1697587306711594,8.077974567874465,12.791229263724508,80.18974303613976,-47.60931736708722
1679940452.824338,-41.30657146549874,2.169759486558812,8.064673899735627,12.791229263570322,80.1897430362101,-47.6093399208885
1679940453.157518,-41.306570678951545,2.1697589552641476,8.052933692889498,12.791229263378545,80.18974303631555,-47.60935655644775
1679940453.491025,-41.30656984676323,2.169759636245591,8.039879333648603,12.791229263227333,80.18974303638775,-47.60937928773318
1679940453.82407,-44.325905338012035,2.2649964715516755,6.70876048958245,12.791229263206455,80.18974303635224,-47.6093503448485
1679940454.157333,-44.32590200221702,2.2649964058159346,6.707464099937803,12.791229263085917,80.18974303623526,-47.609327566637994
1679940454.490667,-44.325901070962374,2.2649962061649727,6.715667750266433,12.791229262885418,80.18974303617988,-47.609309405818635
1679940454.823912,-44.32590272539868,2.2650029571383015,6.726992595649334,12.791229262631022,80.18974303623692,-47.60930415125824
1679940455.157252,-44.32590297921872,2.2650058746037427,6.734536206907821,12.791229262386265,80.18974303625139,-47.609293091037216
1679940455.490472,-44.325900785981254,2.2650034314707397,6.717168646375313,12.791229262281199,80.18974303612822,-47.6092697665768
1679940455.823809,-44.32589938295445,2.26499497250931,6.6900616148140015,12.791229262281831,80.18974303596642,-47.609246330237006
1679940456.157143,-47.45508391702228,2.2334404365398575,9.049932625712326,12.791229262348406,80.18974303580498,-47.60922404857515
1679940456.490443,-47.45507129345908,2.2334519318004693,9.03418889491707,12.791229262445809,80.189743035641,-47.60924466284917
1679940456.823671,-47.45506480381446,2.2334632165500268,9.043804544036966,12.791229262459375,80.18974303548028,-47.609268142068814
1679940457.157037,-47.45506923738392,2.233468949684804,9.061535286597692,12.79122926222661,80.18974303546109,-47.60928194671826
1679940457.490273,-47.455073635775406,2.2334694965502457,9.078009019601303,12.791229261970674,80.18974303549317,-47.60928859567041
1679940457.823712,-47.455073260212025,2.2334723536490726,9.07916987700537,12.791229261720133,80.1897430354972,-47.60929805799895
1679940458.156789,-47.45507451787564,2.2334623397140603,9.066522609214264,12.791229261564501,80.18974303565058,-47.60928119707072
1679940458.490104,-47.45506505588026,2.233463112989131,9.050787765086787,12.791229261364192,80.18974303578558,-47.60926886671108
1679940458.823462,-47.45506613785153,2.23346816380592,9.042224056180649,12.791229261123341,80.18974303577262,-47.60928095053549
1679940459.156641,-47.45506612129078,2.2334674080462005,9.037251701245912,12.791229260868215,80.1897430358447,-47.60928128672101
1679940459.489989,-47.455064309154835,2.2334697519541997,9.044573196427805,12.79122926061724,80.18974303586103,-47.60929044811736
1679940459.823255,-47.455065962471544,2.233470476070689,9.049918570330828,12.791229260359733,80.18974303591237,-47.60929436379736
1679940460.156557,-50.519132291783386,2.208320129172072,9.66902454987859,12.79122926061865,80.189743035857,-47.60929554418259
1679940460.489857,-50.51912909356087,2.2083201794061784,9.656856708340102,12.791229260817417,80.18974303578003,-47.60931299439522
1679940460.823123,-50.51912419259903,2.2083167751293176,9.628460135312947,12.791229260950365,80.18974303566144,-47.6093348091063
1679940461.156317,-50.51911620177718,2.208315911462176,9.61867490922721,12.791229261082345,80.18974303553834,-47.60935640117303
1679940461.489846,-50.51911529463241,2.2083196869598374,9.620097584783116,12.79122926134311,80.18974303554198,-47.60936146481265
1679940461.823017,-53.576227398488015,2.1989157385915177,9.834549180852228,12.791229261101513,80.18974303554592,-47.60934948770799
1679940462.156208,-56.65259050679413,2.2189590250471602,9.23700921427146,12.791229261322181,80.18974303568267,-47.609355936141775
1679940462.489502,-56.65259232901776,2.2189582396342766,9.246467991092208,12.79122926158403,80.18974303567077,-47.60935179236816
1679940462.822737,-56.6525928629958,2.2189577289587192,9.25181292368751,12.791229261846649,80.18974303563671,-47.60935130445734
1679940463.156149,-56.65258935353715,2.2189572680282668,9.247320519149627,12.791229262109455,80.18974303560393,-47.60935116692222
1679940463.489374,-56.65258342260208,2.2189545932948778,9.229426833060844,12.791229262295811,80.18974303547587,-47.609366648814834
1679940463.822617,-56.65257640357664,2.2189514621124635,9.214822144070423,12.791229262487454,80.189743035349,-47.60938143742793
1679940464.155922,-59.674302030309015,2.2291536165664008,9.036587740651724,12.791229262235642,80.18974303531265,-47.60938958178457
1679940464.489327,-62.76212505752282,2.260960643005326,7.957108509163543,12.791229262372063,80.18974303541606,-47.609367129253776
1679940464.822493,-62.76212447211961,2.2609596495169435,7.96075160109343,12.791229262426238,80.1897430353928,-47.60933857023326
1679940465.155832,-62.76212136958772,2.2609596585116623,7.956680541082414,12.79122926246855,80.189743035381,-47.60930968265375
1679940465.489039,-65.8400170025439,2.2213229113712574,9.05427071781574,12.791229262365608,80.18974303545156,-47.60933555896004
1679940465.822335,-65.84001343243018,2.221318006325914,9.043737349086284,12.79122926212951,80.18974303555774,-47.60932900845065
1679940466.155654,-65.84001111263855,2.221319839792171,9.032119297578758,12.791229261900055,80.18974303552847,-47.609343273538755
1679940466.488889,-68.8922169388547,2.22319699984206,8.973393535070077,12.791229262112465,80.18974303552417,-47.60932579191183
1679940466.822936,-68.89221524940386,2.223203626197951,8.984756977621153,12.791229262118291,80.18974303567595,-47.609301583096475
1679940467.155502,-71.96969097673083,2.2604295026895844,7.938042054611248,12.791229261971873,80.18974303563786,-47.60932563437642
1679940467.48884,-71.96969230370865,2.260427255479445,7.941500168560876,12.79122926195443,80.18974303563387,-47.60935485808989
1679940467.822124,-71.96968731122689,2.26042209205226,7.941298451262931,12.791229261799359,80.18974303575015,-47.609374963132204
1679940468.155398,-75.07435091440274,2.323495649453652,5.850087899041323,12.791229262030862,80.18974303564883,-47.6093659593228
1679940468.488604,-78.1813362017449,2.348503026308937,4.571649819558144,12.79122926189756,80.18974303575757,-47.609343574522484
1679940468.822188,-78.18133713286035,2.3485006257530876,4.55846590000579,12.791229261847658,80.1897430357437,-47.609314847306116
1679940469.155237,-78.18133238135297,2.3484983804727286,4.5584816879270065,12.791229261854914,80.18974303579093,-47.609286019077004
1679940469.488597,-78.18132661198528,2.34850047944561,4.5589121373800205,12.791229261719247,80.18974303568777,-47.6092634947705
1679940469.821757,-78.18132274839537,2.3484980954402523,4.545430991243912,12.79122926171256,80.18974303572173,-47.60923444591965
1679940470.155183,-81.22548858658124,2.362688981393398,4.236182353096122,12.791229261889887,80.1897430356882,-47.60925589004855
1679940470.488413,-81.22548537582574,2.362688422299918,4.221507866162631,12.79122926203221,80.18974303571638,-47.609280398836326
1679940470.821644,-84.26407537375526,2.4176313086714787,3.230597458473126,12.791229261782187,80.18974303563719,-47.60927604084999
1679940471.154975,-87.30567618618204,2.447223975576942,2.639531810576853,12.791229262000483,80.18974303561916,-47.60925958020491
1679940471.488262,-90.35723286414438,2.521844222210042,1.2559409814036278,12.7912292618152,80.1897430356935,-47.60927888403046
1679940471.821552,-93.41264613669053,2.5270118476209515,1.1454836180804588,12.791229261650608,80.18974303552515,-47.60926501416897
1679940472.15483,-93.4126525840861,2.5270054214146387,1.1614064565724236,12.79122926149812,80.18974303561117,-47.60924296363465
1679940472.488215,-93.41265774409673,2.5270062527149033,1.1627016732706932,12.791229261323103,80.18974303578489,-47.6092316800157
1679940472.821332,-96.5026417581339,2.5570645745825136,0.09414642386936256,12.791229261205967,80.18974303602663,-47.60923059503931
1679940473.154746,-96.50263391656033,2.557061877663909,0.07614284711258751,12.791229261469988,80.18974303602333,-47.609232776354546
1679940473.487901,-96.50262660294305,2.5570616580698187,0.03889452500996488,12.791229261718113,80.18974303593947,-47.60922813017064
1679940473.821213,-99.58027767915212,2.617479487843666,-1.5072720188198516,12.791229261940746,80.18974303596491,-47.60924374303471
1679940474.15454,-99.58027120919016,2.617467652744853,-1.5113852429285548,12.791229261878415,80.18974303588156,-47.60927073391526
1679940474.487753,-102.6971720448767,2.6966695533344827,-4.039157227157926,12.791229261860249,80.18974303567495,-47.60928945992196
1679940474.821071,-105.78501812602228,2.7104305093752523,-4.543765571899603,12.791229261931276,80.18974303545954,-47.60927367058505
1679940475.15432,-105.78502696053008,2.7104234934595075,-4.5443434065223265,12.791229261902432,80.1897430356046,-47.60924917992959
1679940475.487643,-102.77270190224247,2.8805685058621964,-2.691650134317432,12.79122926192263,80.18974303555383,-47.60922049873009
1679940475.820958,-105.85712774450465,2.877267555066627,-2.600778408344383,12.791229262086595,80.18974303534237,-47.609221841397975
1679940476.154435,-105.85712675784612,2.8772666120545556,-2.6147278797401956,12.791229262280067,80.18974303551416,-47.60922905483544
1679940476.487533,-102.79824630557543,3.4869517970066832,0.2655546625893668,12.791229262094129,80.18974303539954,-47.6092457886828
1679940476.820921,-102.79824345329872,3.486952679528262,0.2674583544137138,12.791229262228402,80.18974303519634,-47.60925805878383
1679940477.154162,-102.79823826627472,3.4869744139765015,0.25098815693914844,12.79122926205643,80.18974303499286,-47.60926086671097
1679940477.487383,-105.83525329081415,3.5238057781715058,-0.445749282662671,12.791229262148036,80.18974303475751,-47.60925075100038
1679940477.820631,-102.71375104673464,3.4718394658795404,-2.83815328735945,12.791229262080963,80.18974303452633,-47.60926390172041
1679940478.153916,-102.71375412432228,3.471833841523656,-2.8325911073069587,12.791229261858748,80.18974303442619,-47.609252265600055
1679940478.487321,-102.7137626102633,3.4718332174817865,-2.8268179471100905,12.791229261741293,80.18974303421332,-47.60923981594071
1679940478.820575,-102.71376179315014,3.471832146540974,-2.8253338268761774,12.791229261565885,80.18974303404892,-47.60922705863087
1679940479.153771,-102.71376435201896,3.4718234108783173,-2.8338530384199316,12.791229261319346,80.189743034017,-47.609216955500244
1679940479.487068,-102.71375390700108,3.4718187971004726,-2.848591320468617,12.791229261067484,80.18974303400988,-47.609207954312375
1679940479.820379,-105.81377748063487,3.494387814412259,-3.8803793114475114,12.791229261286034,80.18974303387937,-47.6092164750613
1679940480.153647,-105.81377173929593,3.4943926914947343,-3.8762526777162,12.791229261347606,80.1897430341323,-47.60922405417906
1679940480.487148,-105.81376998315743,3.4943918875232605,-3.869018953430752,12.791229261530995,80.18974303431027,-47.609215508734145
1679940480.820264,-108.93682882124136,3.5184252434141574,-5.700684415792426,12.791229261302407,80.18974303425337,-47.60920208198411
1679940481.153466,-105.79550656436145,3.465051931962888,-8.827941522888786,12.791229261085075,80.18974303438338,-47.60921106094288
1679940481.486812,-105.79550639693959,3.465027866867799,-8.821171205167852,12.791229261298719,80.18974303425782,-47.60922171527686
1679940481.820121,-108.8698116346593,3.479430172623862,-9.269685968931565,12.79122926117197,80.18974303446348,-47.609208956099046
1679940482.153385,-111.97419228429139,3.498407176138925,-10.24326697078977,12.791229261374635,80.18974303430855,-47.609217463566
1679940482.486623,-111.97419618023491,3.4984041975753066,-10.23681871517348,12.79122926154438,80.18974303450021,-47.60920895817321
1679940482.819903,-111.9741984412159,3.4984034313048125,-10.230185527299573,12.791229261679497,80.18974303473155,-47.60920702712914
1679940483.153226,-111.97419496076596,3.4984018967205937,-10.243609316719976,12.791229261866851,80.18974303487602,-47.609193521131516
1679940483.486537,-111.97419308697259,3.498397419514034,-10.26241595568149,12.791229262056477,80.18974303499459,-47.60917764118456
1679940483.81976,-115.04934119288603,3.5747771640002055,-11.990097939127397,12.79122926182904,80.18974303494858,-47.60916350206293
1679940484.153148,-118.11797809627083,3.6977371437208384,-14.076695725929799,12.791229261912918,80.18974303520439,-47.60916279822606
1679940484.486449,-121.17605047751896,3.6896460299900755,-13.89728831627417,12.791229262082343,80.1897430353807,-47.60915095966782
1679940484.819753,-124.31161571650938,3.8649168131144065,-16.957209210431525,12.791229262041828,80.18974303541151,-47.60912220780702
1679940485.152968,-127.23923875514424,3.879044092286822,-17.08061421125516,12.791229261825078,80.1897430355644,-47.60912492486637
1679940485.486138,-127.23924533149189,3.879041168098544,-17.06487213473966,12.791229261641513,80.18974303537007,-47.60912556263453
1679940485.819605,-127.23925091477186,3.8790349678583214,-17.067682653397494,12.791229261464068,80.18974303519879,-47.609136821402856
1679940486.152805,-127.2392467356989,3.8790301933668783,-17.08047734553754,12.79122926131809,80.18974303507919,-47.60915752249943
1679940486.48611,-130.3175750607855,3.893634536035547,-17.579591977103302,12.791229261548095,80.18974303497909,-47.6091671338802
1679940486.819411,-130.3175663406488,3.8936462487968106,-17.593133247662834,12.791229261664645,80.18974303502749,-47.60919290331209
1679940487.152694,-133.39717537202515,3.9810655174257095,-19.498758152512334,12.791229261622973,80.18974303481721,-47.60917513984506
1679940487.485933,-133.39718161014665,3.9810659345502675,-19.49369200486897,12.791229261707734,80.1897430346387,-47.60919499860989
1679940487.819222,-133.39718336539568,3.981061378058359,-19.47741752919479,12.791229261903027,80.18974303447281,-47.60920317069644
1679940488.152555,-133.3971823905787,3.9810602267266897,-19.471451662041634,12.791229262022943,80.18974303429198,-47.6092203917526
1679940488.48588,-136.43773661711973,4.0268085138632985,-20.33906466645821,12.791229262138836,80.18974303419367,-47.60919631471382
1679940488.81912,-136.43772814980628,4.026810862625505,-20.361738506275216,12.791229261937607,80.18974303435736,-47.60918949201346
1679940489.152367,-136.43772381671988,4.026811398111234,-20.388221707400564,12.791229261728125,80.18974303452181,-47.60919094731429
1679940489.485667,-136.4377238300335,4.02681051949024,-20.39255335043901,12.791229261528596,80.18974303468471,-47.60919855794944
1679940489.818917,-136.43772179156858,4.026809676598665,-20.38937090749252,12.791229261324647,80.18974303485525,-47.60920101983574
1679940490.152248,-139.50685859637,4.028133471179317,-20.42602060300794,12.791229261526428,80.18974303502122,-47.60920692777817
1679940490.485478,-142.59511863080763,4.0542135617859145,-21.33788997797178,12.79122926152937,80.18974303481782,-47.60918768971204
1679940490.818757,-142.59511824510668,4.054210874806558,-21.337230959041698,12.791229261426343,80.1897430349819,-47.609207953352616
1679940491.152054,-142.59511346552299,4.054209697160973,-21.345221364053764,12.791229261383082,80.18974303513525,-47.60923157026203
1679940491.485523,-142.5951055911429,4.054208546998618,-21.35881724573172,12.791229261351392,80.1897430352858,-47.609255623461486
1679940491.818705,-145.62623547163852,4.007555190548612,-20.576102343055457,12.791229261520625,80.18974303531519,-47.609233321799344
1679940492.15202,-145.6262333276822,4.007555648264498,-20.58056413100659,12.791229261723199,80.18974303515067,-47.60923937949602
1679940492.485218,-148.6837479499028,4.037305384516364,-21.264142798712328,12.791229261666007,80.18974303494001,-47.609222211020395
1679940492.818493,-148.68374721033544,4.037304465641335,-21.252706876009036,12.791229261462762,80.18974303509695,-47.609230087025104
1679940493.151859,-148.68374849010397,4.037300821149707,-21.24264174704996,12.79122926129943,80.18974303526562,-47.60924409053113
1679940493.485019,-148.68374665838653,4.037302876295005,-21.245933305118378,12.791229261064057,80.18974303538866,-47.60924286236416
1679940493.818302,-148.68374165588946,4.037301671467428,-21.262962912673665,12.791229260916037,80.1897430355547,-47.6092591349162
1679940494.151681,-148.68373698440774,4.037301544666645,-21.278078524811836,12.791229260730358,80.18974303571493,-47.60927068304805
1679940494.484893,-148.68373519834577,4.03730284719009,-21.282273124570445,12.791229260500158,80.18974303584707,-47.60927257671308
1679940494.818243,-148.68373366850813,4.0373041732019015,-21.27578108588471,12.791229260272377,80.18974303598296,-47.60927488798848
1679940495.151548,-148.68373471167445,4.037304590337324,-21.269480477776035,12.791229260050374,80.18974303612546,-47.609278809220825
1679940495.484825,-151.758830452314,4.054747445220188,-21.787493670288168,12.79122926020644,80.18974303634339,-47.6092786010244
1679940495.818117,-151.75883082859497,4.054747611165653,-21.780426780439196,12.79122926038417,80.1897430362047,-47.609262958768646
1679940496.151379,-151.75882893891458,4.054747602056781,-21.78166133203721,12.791229260547553,80.18974303606043,-47.609246048190705
1679940496.484632,-151.7588259263359,4.054747318153565,-21.791394774236696,12.791229260672589,80.18974303590531,-47.609226477932744
1679940496.81791,-151.75882185298434,4.054747460417929,-21.812065680360767,12.791229260785817,80.18974303574888,-47.60920616453936
1679940497.151306,-151.75881512346766,4.054748333050593,-21.82729912322596,12.791229260902911,80.18974303559361,-47.609186014439935
1679940497.48457,-151.7588110225784,4.054751483071138,-21.831604358125595,12.79122926110843,80.18974303547519,-47.60917275795991
1679940497.818706,-151.75881118742345,4.054749830960314,-21.833637450988025,12.79122926119976,80.18974303531468,-47.60915149338932
1679940498.151127,-151.75881313447397,4.054747712841694,-21.836469285377873,12.79122926130484,80.18974303515665,-47.60913079416071
1679940498.484374,-151.7588095801663,4.054749035353049,-21.834727372306563,12.791229261510187,80.18974303503809,-47.60911751843397
1679940498.817642,-151.7588069747644,4.05475206050768,-21.831150108020946,12.791229261726446,80.18974303492733,-47.60910564563371
1679940499.150941,-151.75880990317566,4.054748134769093,-21.83102867853483,12.791229261791852,80.18974303476371,-47.609083510196356
1679940499.484251,-151.75880878433003,4.05474927390997,-21.839383317160394,12.79122926195009,80.18974303462124,-47.60906583936198
1679940499.817469,-151.7588033099408,4.054754377200948,-21.844189636551285,12.791229262169878,80.18974303451492,-47.60905428456336
1679940500.150909,-151.7588005330381,4.054756870392209,-21.845833488900976,12.791229262360774,80.18974303438821,-47.609039358621345
1679940500.484122,-151.75878647309858,4.054751532579912,-21.862019721939845,12.791229262362183,80.18974303422459,-47.60901606931116
1679940500.817423,-151.7587853224212,4.054749498866812,-21.858885760231335,12.791229262484087,80.18974303407107,-47.60899611129846
1679940501.150628,-151.75877859382942,4.0547524905118095,-21.867410926405416,12.79122926267238,80.18974303394486,-47.608980737394646
1679940501.483983,-151.7587791417526,4.0547555095371814,-21.871836862727037,12.79122926285396,80.18974303381512,-47.60896473794179
1679940501.81735,-151.75876789040504,4.054756602265033,-21.87520120393267,12.791229263015964,80.18974303367631,-47.60894713973978
1679940502.150548,-151.75877002800024,4.0547599361162705,-21.86364169402257,12.791229263254364,80.18974303359032,-47.60893846534603
1679940502.483842,-151.75876632631034,4.054759121081508,-21.87124514372717,12.791229263405274,80.18974303344699,-47.60892010507117
1679940502.817094,-151.75875898500274,4.05476389341938,-21.881648246300717,12.79122926361774,80.18974303333829,-47.60890721326013
1679940503.15046,-151.75875648232787,4.054763078929921,-21.88109537199288,12.791229263740052,80.18974303318605,-47.60888717205771
1679940503.483685,-151.75875271505257,4.054757257169027,-21.886028804622114,12.791229263776101,80.18974303302157,-47.608864299243486
1679940503.817099,-151.75874562228555,4.0547591095063975,-21.89470692909319,12.791229263882448,80.18974303286628,-47.6088434358127
1679940504.150308,-151.7587411053688,4.054760547941199,-21.90050150062116,12.791229264019357,80.18974303271965,-47.608824068044164
1679940504.483538,-151.75873512924224,4.054763219625004,-21.910553461160237,12.79122926420817,80.18974303259728,-47.608808409524066
1679940504.816795,-151.75873919213998,4.054759132356278,-21.899770327305237,12.791229264273248,80.18974303243472,-47.608786168068974
1679940505.149992,-151.75872897650282,4.054767064326395,-21.90847701165904,12.791229264487178,80.18974303232956,-47.60877322650513
1679940505.483387,-151.7587347799383,4.054769366027014,-21.904028129095586,12.791229264675199,80.18974303220563,-47.60875759763445
1679940505.816608,-151.75873674557266,4.05476856626631,-21.89962303924655,12.79122926482485,80.18974303206313,-47.60873903567528
1679940506.149952,-151.75873320130782,4.054765665677467,-21.901441357642234,12.791229264934508,80.1897430319087,-47.60871830700344
1679940506.48331,-151.7587317290989,4.054758319441423,-21.909875162764532,12.791229264941606,80.18974303174416,-47.608695107652835
1679940506.816567,-151.7587165705858,4.05476231333445,-21.940058438292155,12.79122926493991,80.18974303157982,-47.608671879509465
1679940507.149976,-151.75870038585262,4.054762875934066,-21.96382187344415,12.791229264877924,80.1897430314204,-47.60864926661554
1679940507.48317,-151.7586988138661,4.05476126671529,-21.965074153490608,12.791229264887454,80.1897430312556,-47.60862609953589
1679940507.816374,-151.75869995995586,4.054760042273477,-21.959931880955804,12.791229264998668,80.18974303110421,-47.60860520842675
1679940508.149784,-151.7587073655969,4.0547604523328955,-21.950419087058226,12.791229265204832,80.18974303099638,-47.608591040667
1679940508.483032,-151.75871334215742,4.05476341795165,-21.938496644117226,12.79122926542503,80.18974303089885,-47.60857869430075
1679940508.816184,-151.75871337490022,4.054764473702146,-21.935211079240982,12.791229265586624,80.18974303076384,-47.608560708344015
1679940509.149492,-151.7587033180422,4.054762364718105,-21.938617597932723,12.791229265636282,80.18974303060082,-47.608538024582586
1679940509.482776,-151.75870055972018,4.054761979287022,-21.940245581355377,12.791229265789154,80.18974303046255,-47.6085194073698
1679940509.816171,-151.75870809752232,4.054766652782979,-21.93575555292705,12.791229266048681,80.18974303042313,-47.608515489976476
1679940510.149344,-151.75870614736863,4.054766763023559,-21.932403997136504,12.791229266229017,80.18974303029727,-47.60849896144627
1679940510.482744,-151.75870602574628,4.054767959791007,-21.938082000026665,12.791229266343453,80.18974303014586,-47.608478287016744
1679940510.815906,-151.758709250617,4.0547668645756305,-21.93998461911417,12.791229266513637,80.18974303001548,-47.608460876959334
1679940511.1493,-151.7587043747456,4.054766844285095,-21.95587102465938,12.791229266633575,80.18974302986685,-47.6084403478461
1679940511.482487,-151.75869978571694,4.054767124370176,-21.96474800774588,12.7912292667526,80.18974302971826,-47.608419748123104
1679940511.815957,-151.75869585262458,4.054764358831567,-21.975229592266896,12.791229266752383,80.18974302955345,-47.60839655730722
1679940512.149026,-154.82626300931065,4.015432663636453,-21.019197171823798,12.791229266606681,80.18974302947967,-47.60841966599624
1679940512.482335,-157.86174985004206,4.039329626270547,-21.47871737149252,12.79122926677892,80.18974302966943,-47.608428057796324
1679940512.815675,-157.86175755297717,4.03932626579313,-21.485332449202602,12.791229266990076,80.18974302952942,-47.608419045194445
1679940513.148889,-157.86177177213014,4.0393201694709555,-21.494144350779642,12.791229267195387,80.1897430293864,-47.60840899742053
1679940513.482266,-160.97680335870737,4.035344700183929,-21.227895403183663,12.791229266950229,80.18974302931427,-47.60841681044201
1679940513.815545,-160.97681482140268,4.035343065485877,-21.23956903652405,12.791229266713282,80.18974302943289,-47.60841458230479
1679940514.148768,-164.07737207759772,4.0143882043026355,-20.328009655127058,12.791229266473426,80.18974302950213,-47.60842444956063
1679940514.482085,-164.07737929432633,4.0143868157267075,-20.355424491180237,12.791229266627335,80.18974302936526,-47.60844308308931
1679940514.81564,-164.07738168041104,4.01439050794537,-20.36410310803128,12.791229266675055,80.18974302931119,-47.608471290619725
1679940515.148631,-164.07736844781073,4.014397394906141,-20.34531952927985,12.79122926648199,80.1897430294853,-47.608464627425846
1679940515.482005,-164.07736180692063,4.014402408112526,-20.315697446110285,12.79122926628626,80.18974302966438,-47.60846130769702
1679940515.815248,-164.0773627510618,4.014404555111176,-20.29327679383536,12.791229266143473,80.18974302977355,-47.60848294082718
1679940516.148527,-160.99994283461305,3.979991414993172,-21.250848967211798,12.79122926617537,80.18974302974368,-47.60845404385628
1679940516.48179,-160.99993422742543,3.979991056167593,-21.239821580073517,12.7912292664066,80.18974302961495,-47.60845692031901
1679940516.815148,-160.99992233625437,3.979995551084485,-21.246522517785024,12.791229266618258,80.18974302945801,-47.60845251491177
