Timestamps,Roll_N,Pitch_E,Yaw_U,Latitude,Longitude,Altitude
1679940124.584049,-0.12,-2.14,-86.27,12.786539078,80.187889099,11.2
1679940124.917366,-0.11998160206516537,-2.1399932903318484,-86.27353132270943,12.786539078022557,80.18788909903583,11.199971076178192
1679940125.250665,-0.11997226258034559,-2.1399966976663807,-86.27848813638863,12.786539077905074,80.18788909897708,11.199945613849328
1679940125.583958,-0.11996768205500602,-2.1400001149924694,-86.27656559594195,12.78653907772942,80.18788909887682,11.199926591966952
1679940125.917116,-0.11997091422757777,-2.140001131244912,-86.27031148721177,12.78653907773942,80.18788909886315,11.199955824814122
1679940126.250468,-0.11998579518623749,-2.1399934676757018,-86.26667642614491,12.7865390778412,80.1878890989092,11.199982399746181
1679940126.583809,-3.2368981118368776,-2.120152941531445,-87.62213789338887,12.78653907774531,80.18788909878268,11.199958806283306
1679940126.916641,-3.2369098440190456,-2.12015224877156,-87.61604668756,12.78653907799793,80.18788909878751,11.199950051733737
1679940127.250345,-3.2369238423192623,-2.1201599722112063,-87.62998781519876,12.786539078255286,80.18788909885048,11.199950863404787
1679940127.583614,-3.2369252817417666,-2.1201648928804824,-87.6564884680244,12.78653907849889,80.18788909893998,11.199956967820361
1679940127.916462,-3.2369172696148945,-2.12016686425003,-87.69685441090387,12.786539078685792,80.18788909906725,11.199972443799787
1679940128.249837,-1.1544228369017642,-2.734581262039593,-88.72093202961413,12.786539078824113,80.1878890991416,11.199996080142547
1679940128.583091,-1.1544144933770233,-2.7345754339311417,-88.72981807533142,12.78653907867033,80.18788909936066,11.199994403157115
1679940128.916372,-1.1544124058438663,-2.734572831183418,-88.71255463356137,12.78653907849709,80.18788909931399,11.199972840997498
1679940129.24974,-4.245710800140702,-2.720180492528724,-89.26368615633248,12.786539078649502,80.18788909918347,11.19999215118059
1679940129.582987,-4.2457165692386,-2.7201790467662423,-89.24864125115961,12.786539078621008,80.18788909936853,11.200013231033301
1679940129.916318,-4.245725250345851,-2.7201826045258626,-89.24796403661733,12.786539078551144,80.1878890995983,11.20002649322036
1679940130.249517,-4.245730970533139,-2.720184159257857,-89.255088021837,12.786539078477723,80.187889099829,11.200039320830715
1679940130.582795,-4.245723661543359,-2.720188524754239,-89.27278072135442,12.786539078349028,80.18788910005168,11.200030913023976
1679940130.91601,-4.245718284268276,-2.7201886488996756,-89.30256678541734,12.78653907823952,80.18788910029451,11.200034907745398
1679940131.249388,-4.245709805889219,-2.7201880116182102,-89.33068717694418,12.78653907812297,80.1878891005367,11.200035413943167
1679940131.582589,-4.245699722298229,-2.7201927633658434,-89.3386790735437,12.786539078036752,80.1878891006171,11.20000913125391
1679940131.91615,-4.245698537866448,-2.7201893655077085,-89.33334426350412,12.786539078029593,80.18788910073938,11.20003522862632
1679940132.249129,-7.358539393611421,-2.678794462523387,-91.2446411600969,12.78653907801444,80.1878891007097,11.200006164934718
1679940132.582574,-7.358544915995044,-2.678794823054911,-91.23290000140433,12.786539078139018,80.18788910050448,11.20001926382781
1679940132.91582,-7.358548911331173,-2.6787965707506927,-91.23378219396317,12.78653907822184,80.18788910028005,11.200032689360366
1679940133.249027,-7.358541147206456,-2.678798112503406,-91.24818039783774,12.786539078188703,80.18788910003899,11.200045317257517
1679940133.582414,-7.358536646066433,-2.6788007385146337,-91.25884017251371,12.786539078104672,80.18788909980555,11.200056679917894
1679940133.915662,-7.358532952157389,-2.678800737243939,-91.26988977541289,12.786539078158238,80.18788909957314,11.200070321221872
1679940134.248922,-4.301628937040904,-2.4314019562923317,-88.78246538660862,12.786539078414641,80.18788909954667,11.200077037904475
1679940134.582109,-4.301625790075127,-2.4314002907636945,-88.78411070583762,12.786539078386943,80.18788909972777,11.20009853031101
1679940134.915542,-7.327291274860652,-2.407038231588569,-89.2050490965385,12.786539078355311,80.18788909987823,11.200074470754037
1679940135.248745,-7.327286736643068,-2.4070354456494925,-89.19883961375399,12.786539078417096,80.18788909973266,11.200050775267053
1679940135.582027,-7.327286075809482,-2.407035961361202,-89.1982266737154,12.786539078511066,80.18788909956393,11.200030422130789
1679940135.915323,-7.327287402842448,-2.4070378403392616,-89.20239734278545,12.786539078657878,80.18788909936858,11.200018410133572
1679940136.248652,-7.327283029969407,-2.40703768801872,-89.2050455725045,12.786539078794341,80.18788909917714,11.200004338143447
1679940136.581813,-7.327280623399729,-2.407034555752208,-89.21045699463582,12.786539078852108,80.18788909903667,11.199980162062952
1679940136.915376,-7.327279779590331,-2.4070344221247657,-89.2194766571013,12.786539078970483,80.18788909885627,11.199962761004112
1679940137.248482,-10.225359672290498,-2.6018214693181876,-87.87408678725075,12.786539079206994,80.18788909875948,11.199970693325305
1679940137.581636,-10.225353419053421,-2.6018261947875563,-87.87255914329845,12.786539079103406,80.18788909896799,11.19998532878944
1679940137.915051,-10.225355453644069,-2.6018257521890575,-87.87361967519637,12.786539079303553,80.18788909912705,11.199993660176329
1679940138.24829,-10.22535834484304,-2.60182448858757,-87.87597021890858,12.786539079511257,80.18788909927835,11.200001410968172
1679940138.581602,-10.225355849571281,-2.6018260713316197,-87.88069764767582,12.786539079627381,80.1878890994908,11.20001409442817
1679940138.914851,-10.22534643806564,-2.601832590929609,-87.8808952660903,12.786539079452105,80.18788909965726,11.200026559237473
1679940139.248133,-10.225343905953602,-2.601829879294685,-87.8768007849739,12.786539079686312,80.18788909977273,11.200031987494542
1679940139.581403,-10.225347050674104,-2.6018302399752113,-87.8843963436716,12.786539079866381,80.18788909994932,11.200041660641116
1679940139.914784,-10.225347384287343,-2.6018323272662762,-87.89247004108648,12.78653907997441,80.18788910016453,11.20005466983235
1679940140.24799,-10.225342261131082,-2.601832545626175,-87.89885100998679,12.78653908010103,80.18788910037189,11.200067112618772
1679940140.581275,-10.225339327937265,-2.601827491614052,-87.89909412515104,12.786539080364353,80.18788910040003,11.200067022865385
1679940140.914502,-10.22533786794781,-2.601825144354734,-87.90348773122248,12.786539080583982,80.18788910053547,11.200074189171623
1679940141.247841,-10.225337476038765,-2.6018253687570887,-87.90185486562912,12.786539080766525,80.18788910070776,11.200084201486032
1679940141.58115,-10.225334425662979,-2.6018263470190903,-87.90143528614556,12.7865390808761,80.18788910092138,11.200097360586165
1679940141.914424,-10.225326764860835,-2.6018292028626653,-87.90915584125135,12.786539080885651,80.1878891011529,11.20011235602361
1679940142.247811,-10.225324581038226,-2.601831263184298,-87.91737820617404,12.78653908099688,80.18788910136585,11.200125469209997
1679940142.580978,-10.225325907804496,-2.601829981722573,-87.91956816233798,12.786539081225774,80.18788910148685,11.20013211512823
1679940142.914268,-10.225326137898243,-2.6018255098719316,-87.9168526227719,12.786539081479228,80.1878891015582,11.200135542639673
1679940143.247588,-10.225324444511859,-2.6018256893026517,-87.90782386699733,12.786539081657901,80.18788910173222,11.20014604200824
1679940143.580952,-10.225320369869067,-2.601830177673021,-87.90479524006501,12.786539081629575,80.18788910196153,11.200161150130182
1679940143.914136,-10.225314972893818,-2.6018341900360467,-87.91224452719997,12.786539081598788,80.18788910219045,11.200176266941465
1679940144.247481,-10.225309736501053,-2.6018312256403635,-87.92554175232102,12.786539081816562,80.18788910232762,11.200183735996303
1679940144.58069,-10.225306040880453,-2.6018297697797186,-87.94673266327068,12.786539082006543,80.18788910249309,11.20019340161941
1679940144.913969,-10.225301535929157,-2.6018293535861647,-87.9657085446094,12.786539082143257,80.18788910269309,11.200205959009843
1679940145.24733,-13.234114575520778,-2.4982429573934666,-89.30012898286452,12.7865390820739,80.18788910244346,11.200197932188008
1679940145.58048,-13.234111354237708,-2.4982429659265013,-89.29885098694254,12.78653908215896,80.18788910227187,11.200177381464174
1679940145.913876,-13.234116288203893,-2.498241368177477,-89.28780863282185,12.786539082176912,80.18788910216874,11.200150388271279
1679940146.247166,-13.234121577008839,-2.4982404354100596,-89.27397749425836,12.78653908219123,80.1878891020664,11.200123332797238
1679940146.580409,-13.23411834438601,-2.4982419340758133,-89.26907134010352,12.78653908227475,80.18788910189102,11.200103086793046
1679940146.913708,-13.234112481028669,-2.498240204585845,-89.26895873900332,12.786539082288533,80.18788910178593,11.200076150876392
1679940147.24701,-13.234107597485549,-2.498239229226146,-89.27095318862668,12.786539082328726,80.18788910165263,11.200051074279685
1679940147.580371,-16.34169918268246,-2.5414741749749514,-87.47943589799038,12.786539082508606,80.18788910145693,11.200047833901543
1679940147.913576,-16.341697689789207,-2.541480750741164,-87.49405869882824,12.786539082553245,80.18788910167933,11.20006365940001
1679940148.246801,-16.341674462995382,-2.5414779197043087,-87.50544525831116,12.78653908276723,80.18788910183802,11.200064485518945
1679940148.580215,-19.395638621751093,-2.442115946058342,-89.21236746395945,12.786539082845717,80.18788910160919,11.200077342624118
1679940148.913423,-19.39563777776291,-2.442114261886092,-89.21300254946993,12.786539082816653,80.18788910154444,11.200049089849928
1679940149.246694,-19.395640579963075,-2.442114044240416,-89.20136194507722,12.786539082822442,80.1878891014424,11.20002198290972
1679940149.579934,-19.395642739815212,-2.4421151489432757,-89.1875724457764,12.78653908284055,80.18788910132521,11.19999567536984
1679940149.91333,-19.39564107331934,-2.4421152906023407,-89.17773743233013,12.78653908286132,80.18788910120301,11.19996966396332
1679940150.246634,-22.415728503350703,-2.462058684890046,-88.86456887244881,12.786539082771347,80.18788910107703,11.199993575324786
1679940150.579871,-25.404691974005694,-2.5006649365321474,-88.38834253633225,12.786539082825998,80.18788910118785,11.199967561090524
1679940150.913116,-28.47258761267036,-2.558992987152374,-87.06451940051002,12.786539082986925,80.18788910131725,11.199949024291264
1679940151.246442,-28.472584327284846,-2.5589946712248994,-87.07391712752424,12.78653908318459,80.18788910142312,11.199933287741018
1679940151.579942,-28.472584672445677,-2.558992983314021,-87.07427528332121,12.786539083357225,80.18788910143591,11.199911122106776
1679940151.912933,-28.47258446258231,-2.558988939798629,-87.06601618982815,12.786539083488488,80.18788910137671,11.199886508827955
1679940152.246318,-28.47258417001227,-2.558988319251801,-87.05830738773746,12.786539083663413,80.18788910139632,11.199864622959675
1679940152.579557,-28.472588385689473,-2.5589909825427584,-87.05976591940149,12.786539083859344,80.18788910148966,11.199847727995548
1679940152.912811,-28.47258673188216,-2.5589920312313112,-87.0631494370481,12.786539084058601,80.18788910162063,11.199834694159811
1679940153.246161,-31.514407587454535,-2.599022017237972,-86.31135707681571,12.786539083971634,80.18788910185363,11.199845892360344
1679940153.579458,-31.514401822090583,-2.5990193039297296,-86.32029906565907,12.786539083988407,80.18788910184514,11.199875111770917
1679940153.912678,-34.572232989742126,-2.575475244712706,-86.88365912974913,12.786539083945165,80.18788910185312,11.199846226729393
1679940154.245993,-34.57223579504093,-2.5754769446037677,-86.88632171241603,12.786539084094521,80.18788910190456,11.19982269357662
1679940154.579223,-34.572235192738766,-2.575477853669458,-86.88805840499397,12.786539084233464,80.1878891019315,11.199797931999232
1679940154.91248,-37.587709646086346,-2.5184147340921594,-87.7451584538505,12.786539084229458,80.18788910179138,11.199822957026711
1679940155.245846,-37.58770284505343,-2.518410379101969,-87.75016868573371,12.786539084032496,80.18788910191194,11.199837512283498
1679940155.579129,-37.58770189558796,-2.518413246351558,-87.75035884882767,12.786539083775885,80.18788910184603,11.199838429920746
1679940155.91236,-37.587703179217584,-2.5184115704539614,-87.75428303232424,12.786539083525987,80.18788910188113,11.19984732584446
1679940156.245693,-37.58769913578596,-2.518413122189297,-87.76866562641356,12.786539083274961,80.18788910179552,11.199846742267084
1679940156.57909,-37.5876879331901,-2.518409054418131,-87.7722724909358,12.786539083014533,80.18788910178843,11.199851967229572
1679940156.91228,-37.58769037216225,-2.5184062879329394,-87.7699922036462,12.786539082825845,80.18788910192151,11.199866576831798
1679940157.245503,-37.58769107334593,-2.5184065491797796,-87.76587224698125,12.786539082570004,80.18788910194274,11.19987375748286
1679940157.578777,-37.58769089049403,-2.5184061744633675,-87.75914668562433,12.786539082315702,80.18788910196919,11.199881389883195
1679940157.912071,-37.58768890273288,-2.518405836159121,-87.75973766983407,12.786539082061136,80.18788910199171,11.199889062438734
1679940158.24544,-37.58768614128209,-2.5184091434848246,-87.77077895191857,12.786539081807335,80.18788910191485,11.199889013800306
1679940158.578679,-37.58769110761139,-2.518408569972619,-87.7689075903715,12.786539081561779,80.18788910196656,11.199898421474213
1679940158.91204,-37.587692573470434,-2.5184065582628916,-87.76731384076088,12.786539081341312,80.18788910206247,11.199910857439278
1679940159.245247,-37.58768708112637,-2.5184085838202384,-87.77278741558007,12.786539081081223,80.18788910201614,11.199913037794738
1679940159.578527,-37.58768546166848,-2.51840816955447,-87.77619372891967,12.78653908082278,80.18788910202466,11.199919336970142
1679940159.911876,-37.5876813713477,-2.5184050573687,-87.77641442787383,12.786539080567994,80.1878891020507,11.199926785013385
1679940160.245106,-37.58767823545205,-2.518407895269152,-87.78166478322765,12.786539080333235,80.18788910193253,11.199922447439691
1679940160.578337,-37.587680474329964,-2.5184091256625143,-87.78579375943056,12.78653908007158,80.18788910191509,11.199926509086453
1679940160.911703,-37.58767806655348,-2.5184084819372057,-87.7900168255714,12.786539079812686,80.18788910192492,11.199932550364185
1679940161.245003,-37.58767309424324,-2.518408120337601,-87.79858928220911,12.786539079552341,80.18788910192588,11.199937881189808
1679940161.578273,-37.58766688653984,-2.518408263145658,-87.79947237517067,12.786539079290124,80.18788910191172,11.199941632461444
1679940161.91164,-37.587656747050076,-2.518404725355408,-87.8105639037664,12.786539079038654,80.18788910195214,11.19994968125463
1679940162.244857,-37.58765365759172,-2.518401344800431,-87.81027859381413,12.786539078786143,80.18788910199336,11.19995726784428
1679940162.57819,-37.587651173875884,-2.518400445680867,-87.8071562882266,12.786539078548255,80.18788910206834,11.19996722475043
1679940162.911471,-37.587650735005504,-2.518400345537294,-87.8040340713479,12.786539078288424,80.18788910208063,11.199972694927627
1679940163.244683,-37.58765337978967,-2.5184025259631433,-87.80590858826417,12.786539078026252,80.18788910204917,11.199974944933109
1679940163.578027,-37.58765952111015,-2.5184064782049775,-87.8071742408921,12.786539077765495,80.18788910200337,11.1999759696509
1679940163.911246,-37.587647333426254,-2.5184031300618948,-87.82126753671366,12.786539077511055,80.18788910203583,11.19998326298646
1679940164.244458,-40.55115772177388,-2.4349010404420968,-88.71677240073147,12.786539077580564,80.18788910227359,11.199971754204682
1679940164.577819,-40.55115169790096,-2.4348976853459545,-88.72229292223486,12.786539077807339,80.18788910217062,11.199981931732571
1679940164.911123,-40.55114960284691,-2.4348967983852194,-88.71693430460991,12.786539078028412,80.187889102098,11.199995991348917
1679940165.24438,-40.55115123703944,-2.434898324067117,-88.70813576147748,12.786539078232058,80.18788910207623,11.200014561430493
1679940165.577635,-40.5511518243613,-2.4349002730452973,-88.70581842042452,12.786539078424402,80.18788910208022,11.200034686215433
1679940165.91096,-40.551150737228205,-2.4349038955082207,-88.7086743558981,12.786539078573881,80.18788910214435,11.200057837526609
1679940166.24417,-40.55115010966144,-2.4349034043699715,-88.70994817658517,12.786539078784749,80.18788910211202,11.200075199544589
1679940166.577517,-40.55114885698799,-2.4348988167777086,-88.71073086394543,12.786539079010009,80.18788910198622,11.200082296149276
1679940166.910914,-40.55115300593197,-2.4348995564049614,-88.70782149158835,12.78653907922607,80.18788910193797,11.200098397471617
1679940167.244113,-43.63171446846539,-2.45191226561999,-88.17199351192372,12.786539079066989,80.18788910202697,11.200077070381623
1679940167.577378,-43.631712815610484,-2.4519116432359414,-88.1700736343155,12.786539078814348,80.18788910210672,11.200078435072415
1679940167.910603,-43.63170963132133,-2.451909480787588,-88.1723113814949,12.786539078575409,80.18788910221535,11.200082917807753
1679940168.244236,-43.63170394946824,-2.451909229880379,-88.18229783781574,12.786539078314327,80.1878891022283,11.200078254554352
1679940168.577219,-46.70256176803218,-2.50436141491096,-86.92280772129992,12.78653907830738,80.1878891024763,11.200066754358858
1679940168.910567,-46.70255559289447,-2.504360667023056,-86.93002572334639,12.786539078415927,80.18788910243995,11.200040332214968
1679940169.243829,-46.702554752714754,-2.504356978035934,-86.93174618132964,12.786539078461352,80.18788910232738,11.200014191808084
1679940169.577117,-46.70255730601454,-2.50435939599145,-86.93280260174215,12.786539078570094,80.18788910228794,11.199987830830992
1679940169.910403,-46.70255593934031,-2.50435833422921,-86.93337322404422,12.786539078640072,80.18788910220066,11.199961219634284
1679940170.243759,-46.70255266532125,-2.50435742205895,-86.9382069497378,12.786539078738164,80.18788910214684,11.199934648489723
1679940170.576946,-46.702550236168555,-2.5043554968186825,-86.94090097352317,12.786539078786854,80.18788910203557,11.199908512881624
1679940170.910287,-46.70254901288333,-2.504356027375625,-86.94641728101432,12.786539078873952,80.18788910196585,11.1998819073404
1679940171.243572,-46.70254988442525,-2.5043558690200993,-86.94422711694541,12.786539078950947,80.18788910188282,11.199855371706846
1679940171.576826,-46.70254935355982,-2.504355277507359,-86.93718497106181,12.78653907901892,80.18788910179055,11.19982889410317
1679940171.910088,-46.702550140928665,-2.50435396431871,-86.92894388488388,12.786539079056185,80.18788910166916,11.199803063111654
1679940172.243389,-46.70255134255153,-2.5043545519170802,-86.9241437412155,12.78653907913656,80.18788910159483,11.199776344937463
1679940172.576624,-46.702549926794035,-2.5043544149090193,-86.92307274119143,12.786539079224651,80.18788910153114,11.199749602872409
1679940172.909895,-46.702547889693584,-2.5043546106771264,-86.92647565941289,12.78653907931889,80.18788910147552,11.199722903790299
1679940173.243204,-46.7025460483675,-2.5043559515925407,-86.93631015629619,12.786539079436155,80.18788910145044,11.199696783383722
1679940173.576487,-46.702539783158386,-2.504354882396658,-86.94754536051455,12.786539079546223,80.18788910141198,11.199670472107872
1679940173.909806,-46.70253368363384,-2.5043534174055604,-86.95616010908272,12.786539079631138,80.18788910133779,11.199643923894419
1679940174.243024,-46.702529262903774,-2.504348846819197,-86.95739653904661,12.786539079629938,80.18788910117908,11.199620236890658
1679940174.576388,-46.70253048581893,-2.504349185517822,-86.95510257393877,12.78653907970567,80.1878891010917,11.199593821465067
1679940174.90967,-46.702531269582806,-2.504351653893805,-86.95214146872364,12.786539079843628,80.18788910108654,11.199568826035465
1679940175.243085,-49.76066262825987,-2.5182278938953124,-86.62861321121753,12.786539079701656,80.18788910106662,11.199593455733215
1679940175.576261,-49.76065921406751,-2.51822552894506,-86.62416676492553,12.78653907977622,80.18788910123244,11.199615036881852
1679940175.909468,-49.760659327105024,-2.51822657650318,-86.62840991019847,12.786539079775611,80.1878891013138,11.199642965998908
1679940176.242805,-52.83939843272804,-2.5065681131476527,-87.01233995421721,12.78653907968761,80.18788910142108,11.19961791531564
1679940176.576086,-52.83939758118645,-2.5065671784727512,-87.00807890520048,12.786539079747481,80.18788910130377,11.199592383182164
1679940176.909338,-52.83939403622977,-2.5065729854670438,-87.00687533213552,12.786539079932822,80.18788910137218,11.199572828486472
1679940177.242692,-52.839390395217194,-2.5065764455364064,-87.0174909315844,12.786539080095174,80.18788910139216,11.199549792842124
1679940177.576021,-55.63985160366752,-2.6140553325588947,-86.42591923408524,12.786539079870353,80.18788910142497,11.199564849497897
1679940177.909326,-58.6748872033956,-2.447927443351029,-88.44796979874933,12.786539079751304,80.18788910118712,11.199569045697444
1679940178.242591,-58.674885553949196,-2.447922761682052,-88.45323279805713,12.786539079858143,80.18788910098172,11.19955418390456
1679940178.575866,-61.76583290411837,-2.4461208553577864,-88.53613835981074,12.786539079688815,80.1878891007821,11.199560287411908
1679940178.909107,-61.765837269121334,-2.4461173140830694,-88.52546719412241,12.786539079576446,80.18788910098932,11.199574330763912
1679940179.242444,-61.76583835290446,-2.4461094799066636,-88.50873174699572,12.786539079555583,80.18788910118884,11.19959390929894
1679940179.575665,-64.87986867724521,-2.5513046395674905,-85.87342142768358,12.786539079766298,80.1878891012179,11.199576456567815
1679940179.90904,-64.87987176857318,-2.5513096333578176,-85.88965706507543,12.786539079586767,80.18788910108333,11.199560646425459
1679940180.242243,-64.87987505037329,-2.5513090411511117,-85.90496730573913,12.786539079415185,80.18788910088396,11.19955525357634
1679940180.575837,-64.87986597637689,-2.5513085806639912,-85.90757122155067,12.786539079592202,80.18788910106964,11.199563502836366
1679940180.908836,-67.92024930547441,-2.6782462000690916,-84.11218612550746,12.786539079697661,80.18788910115701,11.199538366187209
1679940181.242065,-67.92025516517838,-2.6782463908783094,-84.1168057501389,12.786539079695563,80.18788910138267,11.199522314463051
1679940181.575428,-67.92025904411324,-2.6782444764661966,-84.11795451742685,12.786539079645154,80.18788910162192,11.199509983401368
1679940181.908633,-70.9930664929282,-2.6788837339138776,-84.11480915984653,12.786539079637798,80.18788910184202,11.199526903267648
1679940182.242027,-70.99306097501254,-2.678883124238355,-84.12722183732734,12.786539079605875,80.18788910163285,11.199545059835641
1679940182.575267,-70.99305748514185,-2.6788906932685714,-84.13290083022622,12.786539079417778,80.18788910159287,11.19956521139072
1679940182.908467,-70.9930478074423,-2.6788828034091234,-84.13357443312603,12.786539079607692,80.18788910163072,11.199545219290581
1679940183.241709,-70.99304861324798,-2.678878020201723,-84.12880774170448,12.786539079734169,80.18788910139767,11.199549902647348
1679940183.575163,-70.99306039931052,-2.6788831249430185,-84.13062987415448,12.786539079685067,80.18788910119639,11.19956863314362
1679940183.908356,-70.99306189723332,-2.678882849878791,-84.12635330318332,12.78653907970746,80.18788910096221,11.19958296212319
1679940184.241596,-70.99305935544912,-2.6788839512534013,-84.12028741659668,12.786539079650133,80.18788910076604,11.199602042190033
1679940184.57485,-70.99305709434162,-2.678888092587873,-84.12290791033372,12.786539079525264,80.18788910063125,11.199623325440385
1679940184.908167,-70.99305165215218,-2.6788893533009954,-84.13801879907435,12.786539079425275,80.18788910047088,11.199644120573762
1679940185.24155,-70.99304656956417,-2.6788850227443506,-84.15001949949705,12.786539079530867,80.18788910023315,11.199651549576455
1679940185.574786,-70.99303959090095,-2.6788840273149024,-84.16457210445661,12.786539079485797,80.18788910002822,11.199669933432956
1679940185.908079,-70.99303781813198,-2.6788813814311423,-84.17635415264444,12.786539079536547,80.18788909978898,11.199682252017798
1679940186.241255,-70.99303986704372,-2.6788807627859756,-84.18390369128964,12.786539079532893,80.18788909956207,11.199698092769317
1679940186.574609,-70.9930436769472,-2.6788789723007866,-84.17971423267396,12.786539079578176,80.18788909932199,11.199710476256927
1679940186.907931,-74.02228711011114,-2.5220075806717417,-86.06945759671237,12.786539079817961,80.18788909921886,11.199715854864282
1679940187.241234,-74.02228553360487,-2.5220052676558113,-86.0603833245618,12.786539079950378,80.18788909943451,11.19970610145883
1679940187.574505,-74.02228152559242,-2.52200449190886,-86.055510946641,12.786539080115375,80.18788909964412,11.199708704719322
1679940187.907747,-76.90989656396607,-3.0786994122695566,-83.7533917817778,12.786539079949993,80.18788909964067,11.199731577224293
1679940188.24104,-76.90989832110517,-3.078701151104142,-83.76783871874386,12.78653907994652,80.18788909937527,11.199736813549274
1679940188.574347,-76.90989903549968,-3.078702412625025,-83.78252069021731,12.786539079942767,80.18788909910974,11.199741974311102
1679940188.90763,-76.90989774619834,-3.0787009952143665,-83.78390893000176,12.786539079967316,80.18788909884127,11.199741043185728
1679940189.240888,-76.90989690291275,-3.0786971513825665,-83.77783802902286,12.786539080034917,80.18788909859616,11.199731357510784
1679940189.574128,-76.90989895217328,-3.0787015199188335,-83.77886684185665,12.786539079996105,80.18788909834863,11.199742184427043
1679940189.907513,-76.9098952848658,-3.078702560753427,-83.78385465767592,12.78653907997383,80.18788909809011,11.199750182559228
1679940190.240748,-76.90988921077856,-3.078701646552976,-83.79014264955428,12.78653907997618,80.18788909782226,11.199753675024967
1679940190.574055,-76.90988514378246,-3.078701886945356,-83.79405329069444,12.786539079955473,80.18788909756235,11.199761174688968
1679940190.907457,-79.98453126440828,-3.0411749906343037,-84.83051804118104,12.7865390800984,80.18788909737438,11.199775010804304
1679940191.240573,-79.9845304029476,-3.0411734806313806,-84.83809515425766,12.786539080034004,80.18788909763468,11.199772104795214
1679940191.573828,-79.9845299807203,-3.0411760666000887,-84.8415529447437,12.786539080104193,80.1878890978936,11.199769394402647
1679940191.907138,-79.98453244956288,-3.041173189790988,-84.83092930603145,12.786539079980308,80.1878890981306,11.199766559003335
1679940192.240492,-79.98453740712816,-3.0411685570008347,-84.8283281902381,12.786539079850295,80.18788909836431,11.1997638896742
1679940192.573741,-79.98453072302574,-3.0411715611670243,-84.82615987021948,12.786539080073196,80.1878890985093,11.19976244109162
1679940192.907091,-79.98452394261155,-3.04117463498253,-84.83441432974615,12.78653908023775,80.18788909871965,11.199760218764501
1679940193.240265,-79.98452218419496,-3.041177995712925,-84.8516626239531,12.786539080308334,80.18788909897846,11.199757500796938
1679940193.573618,-79.98451692573802,-3.041175391164291,-84.8648410417001,12.78653908023127,80.18788909923502,11.199754451391128
1679940193.907023,-83.06988993609595,-3.168470783852112,-82.55980913317012,12.786539079980352,80.1878890991534,11.199751476640243
1679940194.24018,-83.0698886735564,-3.168469755445528,-82.55555568137741,12.786539079927937,80.18788909889416,11.199745811497099
1679940194.573485,-83.0698918388866,-3.1684677449783645,-82.54582395233747,12.786539079859653,80.18788909864301,11.199738245970574
1679940194.906721,-83.06989633769,-3.168468433937456,-82.54314207606957,12.786539079818073,80.1878890983793,11.199734130835072
1679940195.240045,-83.06988899671519,-3.1684644234939974,-82.5472277988568,12.786539079702857,80.18788909817381,11.19972007025897
1679940195.573296,-83.06987023492478,-3.1684601384480526,-82.55860458311759,12.786539079683758,80.1878890979052,11.199718366554931
1679940195.906623,-83.06986272487347,-3.1684594270952138,-82.573786969776,12.786539079699729,80.18788909763717,11.19972117518411
1679940196.239873,-83.0698591301522,-3.168451206947354,-82.57832878592518,12.786539079542404,80.18788909754305,11.199699946433785
1679940196.573114,-86.15625890406724,-3.1928768354285726,-81.75549501255564,12.786539079339317,80.18788909738267,11.199692882306246
1679940196.90646,-89.24552753763744,-3.2111983831586723,-81.09188696113023,12.78653907952079,80.18788909757858,11.199694451251377
1679940197.239752,-89.24553175020407,-3.2112026981365056,-81.07906413346845,12.786539079539496,80.18788909730958,11.199695261105973
1679940197.573023,-89.24553338400106,-3.2112024296411095,-81.07149842419611,12.786539079484818,80.18788909705225,11.199701642459766
1679940197.906315,-89.24552439614666,-3.2112076507760965,-81.07415079409496,12.786539079690055,80.18788909695157,11.19968671096533
1679940198.239643,-92.35900578521897,-3.2822942696184447,-78.70244984533991,12.786539079677805,80.18788909669544,11.19967761361502
1679940198.572882,-92.35899517562619,-3.28229846146036,-78.71160213429171,12.786539079893965,80.1878890968404,11.199683812582766
1679940198.906209,-95.4805131121297,-3.249398754370067,-80.76748129384568,12.786539079722578,80.187889097041,11.199688715601514
1679940199.239554,-95.48051713138102,-3.249399936803617,-80.76198725337082,12.786539079696231,80.1878890967843,11.199697239931776
1679940199.572918,-95.48051921165228,-3.2494018467504655,-80.76286672320117,12.786539079692584,80.1878890965197,11.199702931690467
1679940199.905988,-95.48052035201785,-3.2494052649588774,-80.7711577865306,12.786539079739098,80.18788909625437,11.199701648218308
1679940200.239313,-95.48051826090114,-3.2494060078955376,-80.77981396563719,12.786539079756265,80.18788909598659,11.199704656457628
1679940200.572532,-95.48051333916864,-3.249403263429176,-80.79116934985,12.78653907969394,80.18788909575545,11.199718095323723
1679940200.905955,-95.48050742944724,-3.249400695145802,-80.80387794850209,12.786539079655181,80.18788909550622,11.199728458116931
1679940201.239292,-98.57262181338685,-3.384925409938604,-78.37065659607276,12.786539079648536,80.1878890952567,11.199717350371893
1679940201.57244,-98.57262154506022,-3.384922359676307,-78.36430858744417,12.786539079448985,80.18788909541733,11.199725499527325
1679940201.905731,-98.57262641400878,-3.3849202045706095,-78.3535672111014,12.786539079275073,80.18788909560496,11.199734033300567
1679940202.239053,-101.63864852763896,-3.394793905998886,-78.09430954375398,12.786539079396888,80.18788909583749,11.19972779337245
1679940202.572359,-104.63170996608227,-3.531325489187045,-76.60220861286562,12.786539079161194,80.18788909571848,11.199731123503978
1679940202.905611,-107.68259603899797,-3.5824846486931934,-75.58863248270147,12.78653907932337,80.18788909593152,11.199732099531813
1679940203.238922,-110.70294465297977,-3.5379267374296313,-76.3085978064315,12.786539079576194,80.18788909601109,11.199733104249296
1679940203.572151,-110.70294196432837,-3.537929202178476,-76.31568234160946,12.786539079696004,80.18788909625164,11.199732646844543
1679940203.905436,-110.70294511545296,-3.537930429380193,-76.32051694578763,12.786539079857722,80.1878890964493,11.199741437607228
1679940204.23873,-110.70294460463386,-3.537931825966102,-76.31831273909239,12.786539080022123,80.18788909664227,11.199750829171387
1679940204.572023,-113.79472875133798,-3.6848098017425834,-73.8203900895132,12.786539079898862,80.18788909681216,11.199732614264335
1679940204.905333,-116.88344741539235,-3.7064659256267327,-73.05688508065076,12.78653907967816,80.18788909675557,11.19971764463727
1679940205.238531,-116.88345244697933,-3.7064637384683166,-73.06290668963305,12.786539079467259,80.18788909685406,11.19970352956114
1679940205.571841,-116.88344809571795,-3.706459940096049,-73.06498156006333,12.786539079272952,80.18788909688105,11.19968384975564
1679940205.905161,-116.88344304931864,-3.7064581858593817,-73.07234038918165,12.786539079065117,80.18788909702195,11.199674088620602
1679940206.238537,-119.88099604733387,-3.6694822820754807,-73.59181650142145,12.786539079163182,80.18788909719619,11.199693642356538
1679940206.571777,-122.91318214891004,-3.710628197283075,-72.88729872180815,12.7865390789592,80.187889097163,11.199675319563775
1679940206.905032,-122.9131820364444,-3.710630711361784,-72.89427142224919,12.786539078742098,80.18788909731167,11.199670787178723
1679940207.238329,-122.91317864924287,-3.7106269336196696,-72.89350551096469,12.786539078522528,80.18788909733249,11.199654576856325
1679940207.571662,-125.88327685993441,-3.735249747397198,-72.61254247338753,12.786539078743925,80.18788909739662,11.199669055744792
1679940207.904844,-125.88327279562581,-3.7352466254363064,-72.6166413193822,12.786539078986143,80.1878890974184,11.199680645693675
1679940208.238154,-125.88326926443885,-3.7352460143428194,-72.60610550107202,12.786539079238656,80.1878890973623,11.199687008966675
1679940208.57161,-128.95526400744572,-3.747093104250878,-72.27338523449127,12.786539078977343,80.18788909737037,11.199682373237048
1679940208.904831,-132.04369444799136,-3.753077713415489,-72.06987210955222,12.786539079241775,80.18788909737452,11.19968096283863
1679940209.237996,-132.04369277782422,-3.753080655184152,-72.08270066903108,12.786539079447003,80.1878890972579,11.199667465633476
1679940209.571334,-132.04368439284616,-3.7530831970170815,-72.1016944718881,12.786539079611615,80.1878890971017,11.19965201556749
1679940209.904659,-132.04367766915024,-3.7530810255094496,-72.10766370192526,12.786539079874096,80.18788909712659,11.199649276691394
1679940210.237857,-132.04367708385854,-3.753078590560814,-72.10096965357974,12.78653908012472,80.1878890972106,11.19965173292226
1679940210.57124,-135.11247990880452,-3.7696764752754937,-71.65683505391958,12.786539079875487,80.18788909725896,11.199660106383865
1679940210.904437,-135.11247793067346,-3.769677022190276,-71.65577245460267,12.786539079680715,80.18788909730566,11.199679289589165
1679940211.237732,-135.11247657798918,-3.7696780248693194,-71.66007884455334,12.786539079471467,80.18788909732521,11.1996971119427
1679940211.571039,-138.22223357169247,-3.5449969187346895,-74.5242510917724,12.786539079390707,80.18788909751738,11.19971562666755
1679940211.904248,-141.29279283844681,-3.6107700567056833,-73.04646678318689,12.786539079525747,80.18788909761147,11.199738656553354
1679940212.23754,-144.33736102397526,-3.655488396028609,-72.19546512369241,12.786539079349506,80.18788909769626,11.199718830677984
1679940212.570854,-144.33736298408982,-3.6554867030652494,-72.19344121239966,12.786539079602978,80.18788909776976,11.19972166218674
1679940212.904181,-144.3373667842626,-3.6554855076044688,-72.19227741307562,12.786539079858388,80.18788909783737,11.199724046951127
1679940213.237445,-147.416189808956,-3.66813584772923,-71.80557904997438,12.786539079613293,80.18788909793889,11.199725168997302
1679940213.570731,-150.384459635726,-3.635234323283603,-72.1811005999327,12.786539079877437,80.18788909795533,11.199726119266288
1679940213.903999,-150.38445431933047,-3.63522772316289,-72.1781500016005,12.786539080008268,80.1878890981657,11.199737379747965
1679940214.237389,-150.3844557965972,-3.635232272075962,-72.17736749218923,12.78653908027089,80.18788909814896,11.199734131846359
1679940214.57059,-150.38445422988036,-3.635237240652689,-72.18242536026557,12.786539080523823,80.18788909808954,11.199728357909276
1679940214.903911,-150.38445389171957,-3.635238400011973,-72.18587863475764,12.786539080786856,80.18788909812017,11.199727935757881
1679940215.237159,-150.3844540363391,-3.635235541210347,-72.18946548502491,12.786539080991504,80.18788909827673,11.19973545264598
1679940215.570515,-150.38445133064178,-3.6352328845660886,-72.19257554379121,12.786539081188492,80.1878890984408,11.199743557807178
1679940215.903751,-150.3844503804606,-3.635228776459571,-72.1936408321241,12.786539081368558,80.18788909861962,11.199752736273066
1679940216.237054,-150.3844497850537,-3.6352275920904726,-72.19127368884466,12.786539081596304,80.1878890987462,11.199758594308054
1679940216.570303,-150.38444985444485,-3.63522808655065,-72.19401716255723,12.78653908184304,80.18788909883837,11.199762163142113
1679940216.903709,-150.38444934940358,-3.6352282651622754,-72.197459344451,12.786539082092606,80.1878890989235,11.199765365336095
1679940217.236858,-150.38444733532282,-3.6352292810936193,-72.20512023461492,12.786539082355654,80.1878890989542,11.199765319473878
1679940217.570059,-153.46266308212944,-3.7563957262933956,-70.0382283939226,12.786539082358669,80.18788909869514,11.199757155116925
1679940217.903613,-153.462653979856,-3.7563924628712564,-70.04678751087242,12.786539082441879,80.18788909859062,11.199782541129
1679940218.236692,-153.46264868074775,-3.756387370123432,-70.04141366389624,12.78653908249326,80.18788909845729,11.19980736174755
1679940218.569923,-153.46265253571912,-3.7563873600620292,-70.03413643833387,12.786539082566678,80.187889098344,11.199832674115987
1679940218.903299,-153.46265855544894,-3.756390622137608,-70.02292725210239,12.786539082686197,80.18788909828096,11.199857897742321
1679940219.236589,-153.46266221460752,-3.7563886161531124,-70.00718156590005,12.786539082704882,80.18788909811806,11.199881152191953
1679940219.569744,-153.46266411828046,-3.7563885754853157,-69.9949903028278,12.78653908278557,80.18788909800433,11.199906169489845
1679940219.903099,-156.5731473356151,-3.773800615589366,-68.99658249163619,12.786539082707009,80.1878890981486,11.199882996258848
1679940220.23641,-159.65728304287794,-3.816244405760549,-67.74105404205724,12.786539082771373,80.18788909789052,11.199878299620073
1679940220.569758,-162.69773676043897,-3.6926855552232696,-69.53188305094262,12.786539082999843,80.18788909775425,11.19987789272173
1679940220.903064,-165.78098847408265,-3.602665350767903,-71.5516134870862,12.7865390828212,80.18788909757095,11.199886331086104
1679940221.236277,-168.77634418466388,-3.8366451525295497,-69.54060230212272,12.786539082813382,80.18788909781577,11.199898603003563
1679940221.569729,-171.88507305116056,-3.909845653146171,-67.25752289355587,12.786539083016919,80.1878890979762,11.1998917116645
1679940221.902912,-174.95954225550074,-3.960023735747332,-65.98291555995341,12.786539082963898,80.18788909795921,11.199920349365682
1679940222.236188,-178.0553057653511,-3.913847360776128,-67.55295819767393,12.78653908278818,80.1878890980173,11.199899367904171
1679940222.56937,-181.1528873879926,-3.8925685603335545,-68.44489153355468,12.786539082811792,80.18788909774987,11.19990220426324
1679940222.902677,-181.1528913258359,-3.8925725019774995,-68.42863728483277,12.786539082583735,80.18788909788326,11.199905623136871
1679940223.235928,-184.22715888294331,-3.9206083357355612,-67.64497446335636,12.786539082836406,80.18788909780952,11.19990208688302
1679940223.569247,-184.2271575097852,-3.920609919932327,-67.65472222053482,12.786539082998875,80.18788909766134,11.199885471633323
1679940223.902578,-187.2278238601653,-3.92988317222263,-67.54479552970858,12.78653908278097,80.1878890975286,11.199893781100391
1679940224.235799,-187.22781505530713,-3.9298812539236514,-67.56661314797198,12.786539082616013,80.18788909768845,11.199908737496978
1679940224.56923,-187.22780761345663,-3.9298777780556793,-67.58259965374215,12.786539082427671,80.187889097874,11.199904504929723
1679940224.902379,-190.29426675615994,-3.91342642718779,-68.02701333716612,12.786539082508128,80.18788909813098,11.199904055099967
1679940225.235829,-190.2942668611223,-3.9134262096141246,-68.01607949843773,12.786539082706314,80.18788909795337,11.199901744938973
1679940225.568993,-190.2942699298018,-3.9134286094753796,-67.99992273915682,12.786539082904003,80.18788909777606,11.199898736648123
1679940225.902569,-190.29427773854252,-3.913433166731769,-67.9868043148639,12.786539083104136,80.18788909760862,11.199892636071578
1679940226.235588,-190.29427937226058,-3.9134353552123105,-67.98988187193643,12.786539083303369,80.18788909743294,11.199889752993593
1679940226.568942,-190.29427472864023,-3.9134304359329812,-67.99410035085387,12.786539083443598,80.1878890972444,11.199903828822748
1679940226.902126,-193.33780628901025,-3.924124793579783,-67.79609924454093,12.786539083213158,80.18788909711435,11.199900881750226
1679940227.235433,-193.337804558399,-3.924126111734401,-67.80678257759074,12.786539083024085,80.1878890972723,11.199912120105962
1679940227.568741,-193.33779538571636,-3.924124481593652,-67.82644209646925,12.786539082836441,80.18788909742004,11.199925147326459
1679940227.901972,-196.45460990150627,-3.9951807533136505,-65.38007623615137,12.786539082879687,80.18788909754507,11.199950658396812
1679940228.235366,-199.5211387136208,-3.9113717836764765,-67.0814082464904,12.786539082985536,80.18788909747671,11.199976460750209
1679940228.568562,-199.5211358601398,-3.9113722266426874,-67.07581249734696,12.786539082791107,80.18788909765978,11.1999760404668
1679940228.901888,-202.59765545108672,-3.8893087468110994,-67.7231052283834,12.786539082825465,80.18788909792727,11.199975752011495
1679940229.235234,-202.5976586613745,-3.8893099413380803,-67.70069363079664,12.786539082998763,80.18788909772546,11.199978962791759
1679940229.568444,-202.5976622479764,-3.8893112333553406,-67.6905553196572,12.786539083175109,80.18788909752583,11.199981712276712
1679940229.901687,-202.59766362059543,-3.889308180383024,-67.69401294077949,12.786539083326783,80.18788909734269,11.199995168366902
1679940230.23507,-202.5976574918682,-3.889308511659136,-67.70744202399419,12.786539083511524,80.18788909715357,11.199990849730698
1679940230.568241,-202.59765198825403,-3.889310484356973,-67.73513741821951,12.786539083688014,80.18788909699315,11.199977685181203
1679940230.901549,-202.59763727339146,-3.889310982455533,-67.7712419736856,12.786539083854898,80.18788909685698,11.199960405238553
1679940231.234937,-202.59762414210132,-3.8893106846804497,-67.7878857634674,12.78653908404239,80.18788909666763,11.199958167658382
1679940231.568275,-202.5976085586447,-3.889303949655721,-67.78941572414834,12.786539084134528,80.18788909651681,11.199980211970315
1679940231.901379,-205.64755273667146,-3.7904354711057997,-69.43422031787381,12.786539084275315,80.18788909646884,11.199955958716332
1679940232.234664,-205.6475571423038,-3.790435340343109,-69.42468882511922,12.786539084399893,80.18788909667288,11.199942644051816
1679940232.567984,-205.64755741756784,-3.790434698522467,-69.41953908858225,12.786539084476653,80.18788909688618,11.19992684734606
1679940232.901318,-205.6475570161293,-3.7904349332549017,-69.41725180119231,12.786539084511142,80.18788909710072,11.199909504368629
1679940233.234585,-205.64754255223545,-3.790433147710011,-69.42989570291441,12.786539084471677,80.18788909730353,11.199890687957998
1679940233.567781,-202.57440390881249,-4.007204500215385,-71.96548382954158,12.786539084677266,80.18788909713383,11.199889579142301
1679940233.901146,-202.57440168842524,-4.007208471905233,-71.97470175592628,12.786539084455931,80.18788909701007,11.19988075771892
1679940234.234398,-202.5743964618323,-4.007207367583742,-71.97921164824048,12.786539084453675,80.18788909683886,11.199858123265903
1679940234.567708,-202.5743937330723,-4.007206955796777,-71.98305172372133,12.786539084455384,80.18788909666812,11.199835445675351
1679940234.900929,-202.57439664425212,-4.007209455552032,-71.9841100852701,12.786539084335471,80.18788909649938,11.199816836398329
1679940235.234234,-202.57439798470688,-4.007211598466946,-71.9853263109612,12.786539084203566,80.18788909633331,11.199798950050255
1679940235.567581,-202.57440317552397,-4.007209053691406,-71.97817422129927,12.786539084236502,80.18788909616822,11.199776072952618
1679940235.900769,-202.57439367277843,-4.007203720513449,-71.97262131854123,12.78653908441771,80.18788909631625,11.19979013363178
1679940236.234096,-202.5743890470124,-4.007205209327386,-71.97938887104254,12.78653908444156,80.18788909614965,11.199767246833513
1679940236.567477,-202.57438687493627,-4.007204399291622,-71.98011864204886,12.786539084419102,80.18788909597615,11.199744954066892
1679940236.900622,-202.57439636012575,-4.007204937391567,-71.97256097793309,12.786539084430796,80.18788909580714,11.199722161975389
1679940237.233945,-202.574396540516,-4.007203519857528,-71.97361985745431,12.786539084399282,80.18788909563305,11.199700057404886
1679940237.567243,-202.57439534819454,-4.007204555558355,-71.9813212501092,12.786539084284492,80.18788909546247,11.199681250488766
1679940237.900571,-202.5743915387503,-4.007205408183202,-71.98230149356169,12.786539084209366,80.18788909528809,11.19966050581027
1679940238.233902,-202.57438315774937,-4.007210293410091,-71.9972218676742,12.78653908401723,80.18788909514377,11.199647831896312
1679940238.56715,-202.57437249064782,-4.007211965864048,-72.01587570276874,12.786539083837871,80.1878890949933,11.199633782940355
1679940238.900346,-202.57436133970927,-4.007209887123417,-72.0299235954579,12.78653908363407,80.18788909485878,11.199622106974052
1679940239.233633,-202.57435711545773,-4.0072051366649655,-72.03311445799972,12.78653908376661,80.1878890947257,11.19960126971443
1679940239.566914,-202.57436111580336,-4.00720275706069,-72.02874630415575,12.786539083795878,80.18788909455783,11.199578570204055
1679940239.900298,-202.5743653110294,-4.007200235658766,-72.02346695020003,12.786539083843007,80.18788909439387,11.199555902159544
1679940240.233555,-202.57436728800113,-4.0072012894673055,-72.01614067951043,12.786539083785893,80.18788909421954,11.19953445945425
1679940240.566807,-202.574365933553,-4.007200733450007,-72.01113473187158,12.786539083757706,80.18788909404536,11.199512309073063
1679940240.900091,-202.57436702905926,-4.00720289664018,-72.01786437918715,12.786539083649185,80.18788909387493,11.199493037930829
1679940241.233368,-202.57436238379694,-4.0072007268618455,-72.0240244257514,12.786539083649021,80.18788909370282,11.1994704797946
1679940241.56659,-202.57435975431224,-4.007195628207381,-72.02258219828083,12.786539083772086,80.18788909356542,11.199449264377815
1679940241.899895,-202.5743607150346,-4.007196336819119,-72.03037406597429,12.786539083694578,80.18788909339132,11.199428597027397
1679940242.233236,-202.574374188666,-4.0072013958711645,-72.05071000201738,12.786539083611851,80.187889093217,11.199408202022536
1679940242.566513,-202.57438427688118,-4.007204359556867,-72.07530090990858,12.786539083540939,80.18788909304185,11.199387350418085
1679940242.899795,-202.57438958231876,-4.007205131749612,-72.09225805959048,12.786539083486797,80.1878890928666,11.199365902914009
1679940243.233022,-202.57439493145307,-4.0072032747614506,-72.10920613594388,12.786539083461847,80.18788909269134,11.19934380698132
1679940243.56633,-202.5744050923095,-4.007205115907118,-72.13276306112785,12.786539083404827,80.18788909251636,11.199322423420252
1679940243.899619,-202.57440919498148,-4.007204707140416,-72.14614967556795,12.786539083379916,80.18788909234115,11.199300320717732
1679940244.23298,-202.57440016974175,-4.007200188156706,-72.14758002921391,12.786539083556855,80.18788909248052,11.19931600292254
1679940244.566227,-199.4725536594095,-3.9954230775679207,-71.53787134887962,12.786539083539157,80.18788909228448,11.199336031287325
1679940244.899494,-199.47254373715126,-3.995416624280218,-71.5160103362205,12.786539083309723,80.18788909215024,11.199334898632292
1679940245.232759,-199.47254233606634,-3.9954179680349613,-71.49775609563484,12.786539083322173,80.18788909201061,11.199309873656345
1679940245.56605,-196.53208523396268,-3.9726422258889644,-71.24279152860653,12.786539083171498,80.18788909220785,11.199298850112273
1679940245.899499,-196.53208693752788,-3.9726470862354155,-71.21663122218855,12.78653908319709,80.18788909233798,11.199324351533525
1679940246.232652,-196.53208730915588,-3.972648870128102,-71.21742118200422,12.786539083125206,80.18788909239701,11.199351804102218
