Timestamps,Roll_N,Pitch_E,Yaw_U,Latitude,Longitude,Altitude
1679940647.573565,1.61,4.39,-78.54,12.791329384,80.188362122,12.82
1679940647.906783,1.6099880313121122,4.3900001466829295,-78.55095329309941,12.791329383998592,80.18836212208544,12.819972216638604
1679940648.24004,-1.469765173169898,4.40213487121974,-78.96490830192754,12.79132938401295,80.18836212217667,12.819999736596502
1679940648.573338,-1.4697666101353548,4.402137259332356,-78.99114648746777,12.791329383977606,80.18836212209614,12.820027417072184
1679940648.906641,-4.542002475201383,4.349099372631744,-77.71419113910002,12.791329383984607,80.18836212233431,12.820041152174731
1679940649.239966,-4.542008984911617,4.34909802119891,-77.73461358881113,12.791329383824545,80.1883621224261,12.820020054634037
1679940528.257615,-6.903203934394686,5.094256007042267,-77.54635180555645,12.791329383752192,80.1883621224424,12.820048175393444
1679940528.590943,-6.9032123086302875,5.094254599055613,-77.55478434212684,12.791329383995906,80.1883621225106,12.820039445539882
1679940528.924064,-6.90322436747168,5.094252623306341,-77.56882343735417,12.79132938424164,80.18836212258269,12.820031851169084
1679940529.257405,-9.987519844639998,5.061334984434331,-76.54727350466538,12.791329384300825,80.18836212232357,12.8200367141357
1679940529.590663,-9.98751859788208,5.061336776900457,-76.5554220508565,12.79132938444107,80.1883621224043,12.820013466095142
1679940529.924036,-9.98750793359758,5.0613402221075425,-76.545762365322,12.791329384537425,80.18836212247128,12.819987171321838
1679940530.25733,-6.882551735146402,5.063731761322924,-76.38782334078915,12.791329384571167,80.18836212241354,12.819958804284948
1679940530.590161,-6.882548503125396,5.06373018684962,-76.37196267086755,12.791329384570764,80.18836212236046,12.819987523874797
1679940530.924007,-6.882548754202347,5.063731171360537,-76.34385398212336,12.791329384485486,80.18836212228679,12.820014075379833
1679940531.257204,-3.7702415495410397,5.06991481718415,-75.87420288085794,12.791329384481944,80.18836212237309,12.820041824597302
1679940531.589928,-0.6619564964183602,5.0808828592877315,-75.19559679888398,12.79132938440058,80.18836212234118,12.820014166949635
1679940531.923241,2.448775076375443,5.464027544535247,-72.21240360668685,12.791329384273464,80.18836212252198,12.819997585890444
1679940532.256614,2.4487706695348317,5.464028770601632,-72.22544324476394,12.791329384323037,80.18836212234248,12.819976416883334
1679940532.589879,5.546470913148038,5.442052137985663,-73.15100780480024,12.791329384508847,80.18836212253267,12.819979433708912
1679940532.923159,5.546481331295934,5.442045411734373,-73.15466501762722,12.791329384407161,80.18836212246981,12.819953264303162
1679940533.256466,8.63241508481157,5.448700828310856,-72.90517053646475,12.791329384434741,80.18836212260769,12.819928272197165
1679940533.589642,11.710335507356408,5.502160170910611,-71.49994423781497,12.79132938460745,80.18836212253838,12.819907382904448
1679940533.923257,11.710330125338292,5.502161651203203,-71.49095934615725,12.791329384431373,80.18836212235523,12.819898269186732
1679940534.256326,11.710327872299809,5.502162939092608,-71.48105751744188,12.791329384246414,80.18836212217546,12.819890638551296
1679940534.589657,11.710325752813056,5.502161835981408,-71.47570955849302,12.79132938403353,80.18836212201549,12.819889353964758
1679940534.922801,11.710322771183726,5.502160031040027,-71.4689166661802,12.791329383813277,80.18836212186616,12.819890533493323
1679940535.256079,11.710327329636339,5.5021614262298515,-71.47100432300559,12.791329383592009,80.18836212171959,12.819892875171702
1679940535.589361,11.710325904351647,5.502160813657725,-71.46561154350434,12.791329383375322,80.18836212156458,12.819892984068709
1679940535.922711,11.710310906716451,5.502157919080145,-71.4500235883035,12.791329383241806,80.18836212137505,12.819878273846538
1679940536.256027,11.710309573124528,5.50216243634027,-71.45079072142094,12.791329383071888,80.18836212118757,12.81986877605847
1679940536.58929,11.710310106710617,5.502156964061961,-71.44242482180897,12.791329382853498,80.18836212103535,12.81986984573027
1679940536.922547,11.710306117493866,5.502164254681467,-71.44938450849364,12.791329382784397,80.18836212085316,12.81984964219365
1679940537.255868,11.71029222186136,5.502156526855071,-71.44298591353905,12.791329382579493,80.18836212081949,12.819867826749233
1679940537.589081,11.710290648498031,5.502153525248874,-71.44430062473516,12.79132938235306,80.18836212071162,12.819877484951986
1679940537.922418,11.710290508035657,5.502153830339663,-71.44190941587644,12.7913293821543,80.18836212053755,12.819873329558174
1679940538.255841,11.71028872042328,5.5021569463049795,-71.44119960582411,12.791329381961164,80.18836212035957,12.819868038784696
1679940538.589072,11.71028373036975,5.502159189799036,-71.43931760174861,12.791329381765697,80.18836212018311,12.819863212082716
1679940538.922305,11.710270871358414,5.502149724032797,-71.42110678072966,12.791329381571275,80.18836212000751,12.819857570778895
1679940539.255638,11.710273437043782,5.50214855384112,-71.42769790077325,12.79132938134788,80.18836211987575,12.819864088759582
1679940539.588892,11.710266524982133,5.502147643595657,-71.42224936571994,12.791329381145028,80.18836211970468,12.819861034606511
1679940539.922112,11.710259971389535,5.502138714063546,-71.42015432390241,12.791329380921848,80.18836211961,12.819872980895799
1679940540.255518,11.71025371580417,5.502131613415537,-71.41184507250037,12.791329380695911,80.18836211949053,12.819881039389644
1679940540.588769,11.710235490323615,5.502127167293576,-71.39771883778205,12.791329380470101,80.18836211937938,12.819890434039257
1679940540.922004,11.710232159398812,5.502127291659766,-71.39549098006425,12.79132938026459,80.18836211921,12.819888754071458
1679940541.255513,11.710228188519906,5.502128116058054,-71.39311430232591,12.791329380052607,80.18836211904842,12.819889241125617
1679940541.588517,11.710229039687052,5.502127772607717,-71.38891595265041,12.791329379840215,80.18836211888743,12.819889821772191
1679940541.921832,11.71022572015126,5.502127788012394,-71.38246020912999,12.791329379652284,80.18836211870577,12.819883764127065
1679940542.255148,11.710213605565745,5.502137315259223,-71.3603923962284,12.791329379545664,80.188362118521,12.819865976717614
1679940542.588361,11.710196598353223,5.5021325067848945,-71.33481799978351,12.79132937941905,80.18836211833437,12.819850128081855
1679940542.955887,11.71018830539365,5.502130708833106,-71.32067218968758,12.791329379259953,80.18836211814529,12.81983887123305
1679940543.255198,11.710179074197184,5.502128385120342,-71.31541471249538,12.791329379042143,80.1883621180176,12.819848095767293
1679940543.588281,11.710170172073271,5.502119729908712,-71.31777585180481,12.791329378830604,80.18836211791664,12.81986188536989
1679940543.921489,11.710138263885973,5.502100646782398,-71.32312075090532,12.791329378642669,80.18836211786927,12.81988186732501
1679940544.25491,11.710126405418727,5.502099971037896,-71.32976168884518,12.791329378438256,80.18836211778974,12.819898357722609
1679940544.5881,11.710129513256833,5.502101654042772,-71.33710060106846,12.79132937823332,80.18836211761894,12.81989839115952
1679940544.921391,11.710129461298104,5.5021010579076925,-71.33952187582715,12.791329378019583,80.18836211746294,12.819901860745688
1679940545.254713,11.710124717802227,5.502100162991407,-71.33471665884088,12.791329377812804,80.18836211729446,12.819901610474522
1679940545.587965,11.710122254202716,5.5020997405720005,-71.33211281860133,12.791329377606871,80.18836211712492,12.819901293381088
1679940545.921265,11.710121387537777,5.5021026542631475,-71.32613748687656,12.791329377423283,80.18836211693994,12.819894804998274
1679940546.254932,11.710115920731909,5.502103985597967,-71.31115257763419,12.791329377230506,80.18836211676013,12.819890120527113
1679940546.587843,11.710109294896233,5.502106465019784,-71.29184616516284,12.791329377079764,80.18836211657151,12.819877454085061
1679940546.921146,11.710106470292084,5.502107253676147,-71.27483403937734,12.791329376895677,80.1883621163872,12.819870918828716
1679940547.25443,11.710104290240352,5.502107291934495,-71.26300731478081,12.791329376693461,80.1883621162133,12.819869903656967
1679940547.587702,11.71010853371663,5.502108387574476,-71.26122244130069,12.791329376485347,80.18836211604838,12.81987260349221
1679940547.920988,11.710109473758088,5.502110273184386,-71.26750989233389,12.7913293762847,80.18836211587238,12.819872451663803
1679940548.254207,11.710108476816336,5.502110071406637,-71.2779298291042,12.791329376074081,80.1883621157185,12.819878444457729
1679940548.58754,14.778499851439475,5.520952337301775,-70.7681371398433,12.791329375987686,80.18836211597268,12.819880671532095
1679940548.92081,14.778496412820898,5.520950415998982,-70.77165244246031,12.791329376141846,80.18836211612408,12.819863441941203
1679940549.25425,14.778494743250599,5.520948553899617,-70.77031512923313,12.791329376296552,80.18836211627384,12.819846102545094
1679940549.587578,17.829887920213395,5.50353367742527,-71.13722195441767,12.791329376462095,80.18836211620955,12.81982433561575
1679940549.920674,17.82988819887071,5.503535545937464,-71.13178124405795,12.791329376274657,80.18836211602225,12.819820540401418
1679940550.253983,17.829882418161702,5.503534371932216,-71.13160777778523,12.791329376074474,80.18836211584765,12.819823407369658
1679940550.587492,20.90889654957855,5.459560213990892,-72.35317095357185,12.791329375954096,80.18836211572702,12.819845967889247
1679940550.92057,20.908896799581953,5.459557984913371,-72.35535240885515,12.79132937610715,80.18836211586874,12.819864257451254
1679940551.253828,23.961777415377615,5.464258371003817,-72.24480858824855,12.79132937619973,80.18836211570105,12.819884792374593
1679940551.587159,27.032469408727266,5.465110104823931,-72.21370872355416,12.79132937609142,80.18836211588194,12.819866662267513
1679940551.920447,30.09791240094519,5.45234756390529,-72.5338876242019,12.791329376277076,80.18836211577904,12.819884306280192
1679940552.253704,33.07925977312138,5.506713850275161,-71.875627644957,12.79132937642264,80.18836211590141,12.819863760902606
1679940552.587064,33.079257486324195,5.5067146959778,-71.86826836905139,12.791329376412447,80.18836211608424,12.819885269077602
1679940552.920477,33.07925131460217,5.506715098735785,-71.854357385296,12.791329376338384,80.18836211624594,12.819907236422203
1679940553.253519,36.12273060819116,5.555884792332721,-70.90850261087473,12.791329376463556,80.18836211633734,12.819883410562799
1679940553.587018,36.12273022273453,5.55588323860064,-70.89125424412704,12.791329376292959,80.1883621161393,12.819877135980319
1679940553.920081,36.12272769729754,5.555889726743092,-70.87438692109843,12.791329376229806,80.18836211601851,12.819851892798045
1679940554.25364,36.12272379046897,5.55589005018974,-70.86648993595054,12.791329376082487,80.18836211583009,12.81983870970396
1679940554.586678,36.12272532828905,5.5558956456193584,-70.86827060014272,12.791329375976932,80.18836211567223,12.819818024820183
1679940554.920109,36.12272763066947,5.555900970568628,-70.8756381441536,12.791329375866745,80.18836211550872,12.819798168831532
1679940555.253329,36.12273171179508,5.555899986382492,-70.88806198623858,12.791329375691431,80.18836211530656,12.819798122112648
1679940555.586523,39.223567156819776,5.545385000239383,-71.37847012966729,12.791329375445237,80.18836211539836,12.819802224925926
1679940555.919901,39.223565480330855,5.545381467847539,-71.39148144772751,12.791329375645615,80.1883621155747,12.819802058701137
1679940556.253134,39.22356682876452,5.545376940465976,-71.40095333786634,12.791329375836158,80.18836211576003,12.819805015474309
1679940556.586392,39.22356756480342,5.545370392876696,-71.40903525244718,12.791329376035009,80.1883621159379,12.819806029737846
1679940556.919721,39.22356511171938,5.5453681922952285,-71.41566718301584,12.791329376189104,80.18836211613683,12.819816073672722
1679940557.252942,39.223560330842716,5.545366502166487,-71.4079283509745,12.791329376296385,80.18836211633351,12.819832233643362
1679940557.586263,39.223554137355265,5.545369603426483,-71.39600631610699,12.791329376210026,80.1883621164319,12.819857778717576
1679940557.919751,39.22354721537474,5.545371992122595,-71.36959034280672,12.791329376141237,80.18836211654214,12.819883407631973
1679940558.252806,39.22353866512856,5.545374107619162,-71.34148557216103,12.791329376056632,80.18836211663448,12.81990929070812
1679940558.586112,39.22353227195631,5.545375237534276,-71.3184270628892,12.791329376019092,80.18836211675823,12.819934983668606
1679940558.919464,39.22353391594634,5.545377185995183,-71.31100570119976,12.791329376103043,80.18836211694558,12.819953902721787
1679940559.252829,39.223532866557434,5.545378084852917,-71.30999978151989,12.791329376212996,80.18836211714088,12.819970037893347
1679940559.585971,42.30340817821782,5.55013176394372,-71.15467059162857,12.791329376319917,80.18836211692962,12.81998389133584
1679940559.919313,42.30341327349346,5.550132345798766,-71.17270814037299,12.791329376169344,80.18836211672644,12.819974204598068
1679940560.252555,42.30341446874512,5.550129411558786,-71.18753516859678,12.791329375977398,80.18836211654246,12.819977038129398
1679940560.585854,45.38923715398903,5.528706424038168,-71.92649085718476,12.791329375713687,80.18836211656628,12.819976691386541
1679940560.919319,45.38923979160598,5.528704806685817,-71.9405020965959,12.79132937579893,80.18836211676272,12.81999441581276
1679940561.252432,48.4362330174708,5.535914674591074,-71.78175736921521,12.791329375786699,80.18836211658194,12.820016117736252
1679940561.585686,51.485849534609706,5.608844833437373,-70.42934784451027,12.791329375650884,80.18836211668628,12.82003856461159
1679940561.919014,54.553570447656156,5.665559565177239,-69.094716025759,12.791329375698062,80.18836211686859,12.820017613346945
1679940562.252309,54.553564467883945,5.665559941285506,-69.06557480067045,12.79132937546858,80.18836211676356,12.82002674610519
1679940562.585637,57.614905250820385,5.731446937499913,-67.66950115977349,12.791329375405928,80.18836211651355,12.820018193838875
1679940562.919316,57.61489877777724,5.731447402071777,-67.65372862301652,12.791329375370115,80.18836211662504,12.819991816133598
1679940563.252139,60.651867003342794,5.7658075707953,-67.00678964195386,12.791329375195831,80.188362116567,12.819970685259094
1679940563.585407,60.65186647785192,5.765807310045787,-67.00683351589754,12.79132937536893,80.18836211638639,12.81998101578132
1679940563.918666,63.73439510488073,5.747846709814149,-67.5926620174454,12.79132937536476,80.18836211665608,12.819981597439202
1679940564.251971,63.734398997938264,5.747845579760992,-67.6072176964475,12.791329375260753,80.18836211684189,12.819963748966034
1679940564.585453,66.79710632786029,5.752134865071761,-67.49812490579897,12.791329375129845,80.18836211668547,12.819944780211594
1679940564.91877,69.86592258455156,5.736815657414232,-67.90693679088093,12.791329375162643,80.18836211692071,12.819958651992602
1679940565.251948,72.92142622522069,5.7320968216997645,-68.00144437039214,12.791329375124057,80.18836211675865,12.819935627349965
1679940565.585094,75.96478116195883,5.780462371836248,-67.0713976894404,12.791329375127793,80.18836211686046,12.819962750966845
1679940565.918992,75.96477651356017,5.780463428862097,-67.05281866924217,12.79132937500691,80.1883621168634,12.819936692171423
1679940566.251652,75.96476871970631,5.780464050596953,-67.0379555658015,12.791329374891234,80.18836211684591,12.819910413714018
1679940566.585187,79.03628276184374,5.80450952871911,-66.36403560478897,12.79132937472461,80.18836211691371,12.819888873216518
1679940566.918303,79.0362826064507,5.804507872776339,-66.36571860120024,12.791329374960496,80.18836211679552,12.81989238098684
1679940567.251559,79.03628349397657,5.804509125871929,-66.37040174569277,12.791329375207175,80.18836211671754,12.819898828409322
1679940567.584823,82.0926397540959,5.771459731940935,-67.11142433293683,12.791329375219455,80.18836211698621,12.819896566886738
1679940567.918088,82.09264182961307,5.771459515582978,-67.11811813510009,12.791329375072216,80.1883621170721,12.819874079856179
1679940568.251485,82.09263874339554,5.77145932804555,-67.11983473350895,12.791329374952126,80.18836211709399,12.819848084043992
1679940568.584727,85.1786116806431,5.813008169541724,-65.82165830256723,12.791329374973884,80.18836211720398,12.81982144657306
1679940568.918032,85.17860788073241,5.813008042559751,-65.80486563821283,12.79132937523569,80.1883621172008,12.819817086924953
1679940569.251253,88.25653739285757,5.7565293727451365,-67.24376554336091,12.791329375032127,80.18836211733222,12.81980495622701
1679940569.584547,91.29189861051752,5.690373709922418,-68.35044072378757,12.791329375092914,80.18836211710325,12.819791005249968
1679940569.917868,94.36587090665141,5.721991372444385,-67.4649977203025,12.79132937492681,80.18836211723641,12.81980864643492
1679940570.251211,94.36586812097848,5.72199292670231,-67.45525161596473,12.791329374940727,80.18836211717971,12.819780050190008
1679940570.584458,97.40783747555429,5.725976797469991,-67.36202571051928,12.791329374870191,80.1883621171768,12.81975181972848
1679940570.917692,97.40783491316328,5.725979465821521,-67.35657059879202,12.791329374834332,80.18836211730408,12.81977734070563
1679940571.251067,97.40783214740276,5.7259803279291095,-67.35210573767672,12.791329374816698,80.1883621174076,12.819804319263964
1679940571.584238,97.40782989206926,5.725977231377158,-67.35429408339337,12.791329374919597,80.18836211731347,12.819829298789998
1679940571.917657,97.40783115839037,5.725971383067728,-67.36318616985776,12.791329375043082,80.18836211717769,12.819850606343538
1679940572.250794,100.49417960920385,5.692995263731071,-68.4425768684574,12.791329374994955,80.1883621173404,12.819873356019027
1679940572.584104,100.49418049212241,5.692992148018581,-68.44971616766847,12.791329375170426,80.18836211740036,12.81985240939853
1679940572.91738,100.49417779878527,5.692992585218474,-68.4454504063576,12.79132937539635,80.18836211729165,12.819842716953755
1679940573.250749,103.53207226894402,5.76039379689928,-67.279298644977,12.791329375597355,80.18836211715342,12.819830962544996
1679940573.583986,106.58017011792424,5.79467846824103,-66.55822754583085,12.791329375540988,80.18836211707266,12.819858206369792
1679940573.917245,106.5801669181842,5.794678125208294,-66.54270539203043,12.791329375387422,80.18836211694976,12.819838425944337
1679940574.250561,109.66264552559194,5.840408715762521,-65.20615022025898,12.791329375541471,80.18836211708992,12.819820098198175
1679940574.583799,109.66264400507904,5.840410648261819,-65.1928944008608,12.791329375736682,80.18836211725362,12.819811397942487
1679940574.917165,109.66264347613722,5.8404108862337525,-65.18851603260293,12.791329375938131,80.1883621173876,12.819799162186573
1679940575.250462,112.70797567301898,5.845177159200626,-65.08534799202037,12.791329376126045,80.18836211729051,12.819781423621718
1679940575.583799,112.70797614550874,5.845175717254043,-65.09739088312021,12.791329375939979,80.18836211720135,12.81979987546638
1679940575.916964,115.78882939612058,5.843302828855387,-65.1533407244383,12.79132937576276,80.18836211727978,12.819819902427064
1679940576.250334,115.78882579473927,5.843301666699456,-65.14785198837204,12.791329375961602,80.18836211739227,12.819804905617541
1679940576.583589,115.78881948814546,5.843302528567453,-65.13432357638366,12.791329376128541,80.18836211759844,12.819800934787029
1679940576.91681,115.78881039282183,5.8433028000614815,-65.11808513939016,12.791329376296863,80.18836211780251,12.819796427954664
1679940577.250167,115.78880761179275,5.843301771994228,-65.10442593508661,12.791329376488765,80.18836211794657,12.819783674586956
1679940577.583524,115.78880454180789,5.8433019106511415,-65.09952098647058,12.791329376673778,80.18836211811046,12.819772611538198
1679940577.916747,118.82154209040687,5.861757218561716,-64.75782587866973,12.791329376802532,80.18836211791748,12.819757912884683
1679940578.2501,118.82154220008242,5.861757024062832,-64.76374185115041,12.79132937666968,80.18836211777541,12.81977801317975
1679940578.583361,118.82154767345531,5.861757228557091,-64.77368452190942,12.791329376537462,80.18836211764074,12.819798754379999
1679940578.916572,121.89882991545487,5.852443606198969,-65.05670542517069,12.791329376407065,80.18836211770657,12.81982322397231
1679940579.249859,121.89882959459773,5.852439396783028,-65.06410983213887,12.79132937657525,80.18836211772995,12.819800743660064
1679940579.583245,121.89882493084549,5.852438569845946,-65.06052970670832,12.791329376750705,80.18836211790834,12.81979044273571
1679940579.916476,121.89882225914913,5.852439455787165,-65.05103901637395,12.791329376913156,80.18836211811387,12.819784363119231
1679940580.249757,124.94635647821997,5.870098156620067,-64.66461714457303,12.791329377008793,80.1883621178846,12.819773122483229
1679940580.583097,124.94635354069545,5.870098590844695,-64.66032593217933,12.79132937688457,80.18836211768408,12.819787092655446
1679940580.916262,124.94635020040465,5.870094483433613,-64.66176883425894,12.791329376795806,80.18836211762842,12.819814019541454
1679940581.249555,124.94634853847153,5.870096238299533,-64.65965627965798,12.791329376673144,80.1883621174076,12.819823972711642
1679940581.582816,128.0158119936873,5.900419512068882,-63.85248177797206,12.791329376762796,80.18836211764433,12.819833925025168
1679940581.916193,131.08360620086606,5.915682395177976,-63.431803940792044,12.79132937667128,80.1883621174566,12.819815484542966
1679940582.249429,134.15568291100985,5.912291870784237,-63.51687301056265,12.791329376780023,80.18836211765368,12.81983146869123
1679940582.582671,134.15568139033255,5.912292301874537,-63.5194824474534,12.791329376770696,80.18836211789161,12.819817704950571
1679940582.915978,137.23083571858456,5.881321259837191,-64.38178007722367,12.79132937675181,80.18836211769792,12.819797424137432
1679940583.249233,137.2308330724344,5.881318949941561,-64.38445769999699,12.791329376679947,80.18836211751524,12.819817457610231
1679940583.582555,137.23083250002526,5.881317205124615,-64.38093751951855,12.791329376601437,80.18836211732166,12.81983591814427
1679940583.915852,137.23083199489537,5.88131789183375,-64.38370084390647,12.791329376505521,80.18836211708552,12.819845298397501
1679940584.2491,137.23082864785172,5.881317016370416,-64.38207230483864,12.791329376412781,80.18836211685918,12.819857495969261
1679940584.582327,137.23082566560782,5.881316498831232,-64.36873317375172,12.791329376310419,80.1883621166195,12.819864738901508
1679940584.915788,137.2308251989878,5.881321329037093,-64.35366905167463,12.791329376203615,80.18836211637769,12.819859346754447
1679940585.248957,137.23082322559733,5.88132928535144,-64.34263481665867,12.791329376105786,80.18836211616524,12.819844897257688
1679940585.582259,140.31925905018338,6.171306671748345,-61.54074452281848,12.791329376016874,80.18836211625575,12.819870677195379
1679940585.91565,140.31925392391486,6.171301273636953,-61.530344336781056,12.791329375940125,80.18836211637878,12.819895323518276
1679940586.248982,140.3192556528299,6.171303752802656,-61.527331549803996,12.79132937590254,80.18836211664419,12.819898542833279
1679940586.582168,140.31925352842856,6.17130719895746,-61.52781476394724,12.791329375880913,80.18836211691094,12.819894889849763
1679940586.915419,140.31925336388056,6.17130664822863,-61.54025971059961,12.791329375815879,80.18836211713369,12.819909767204932
1679940587.248729,140.31925486221243,6.171306268803291,-61.55586972750449,12.791329375746322,80.18836211734809,12.819925795399001
1679940587.581981,140.31925849217038,6.171305438909932,-61.58072470239861,12.791329375666441,80.18836211752985,12.8199455539562
1679940587.915469,140.3192653000866,6.171307715192121,-61.61057263969502,12.791329375595568,80.18836211776424,12.8199577552639
1679940588.248566,140.31926922026895,6.171309745180616,-61.62149162076365,12.791329375539746,80.18836211802001,12.819964732671938
1679940588.581839,140.31927109392512,6.1713108009596,-61.61113625871773,12.791329375492682,80.18836211828044,12.819970335791606
1679940588.915181,143.39126615265053,6.153095202283489,-62.08257677814327,12.791329375510925,80.18836211806573,12.819987955913415
1679940589.248538,143.39125694179364,6.153092195260704,-62.05851182362108,12.791329375615653,80.18836211782592,12.819981192460356
1679940589.581693,143.3912490089147,6.153088250209753,-62.0400431069465,12.7913293757385,80.18836211760288,12.81997187332239
1679940589.915074,146.48946198078494,6.079767358646396,-64.10149797120881,12.791329375621963,80.18836211773686,12.819949959414984
1679940590.248322,146.48945901431517,6.0797643979078755,-64.10518107815233,12.791329375620673,80.18836211795758,12.81993311853859
1679940590.58171,146.4894600440623,6.079768379041874,-64.10877137063595,12.791329375682091,80.18836211821896,12.819935651189287
1679940590.914928,146.48946008839164,6.07977029803479,-64.1128535632116,12.791329375732134,80.18836211848338,12.819933902582799
1679940591.248176,146.48945869415888,6.0797719497841545,-64.11626950625728,12.791329375786036,80.18836211874748,12.819933535891204
1679940591.581516,146.4894586729017,6.079773881985277,-64.11741261113798,12.791329375831697,80.1883621190111,12.81992989912049
1679940591.914706,146.4894577910435,6.079770948415133,-64.11816914853016,12.791329375827429,80.18836211922165,12.819911592282825
1679940592.248367,146.48945574584823,6.0797714174258095,-64.11344301524421,12.791329375871706,80.18836211948413,12.819906918420559
1679940592.581239,146.48945128763145,6.079769813893047,-64.11094999201822,12.791329375887473,80.18836211972429,12.819893691332219
1679940592.914581,146.48944609882187,6.079768633727024,-64.10885495516959,12.791329375921272,80.18836211998199,12.819885867804945
1679940593.247959,146.48944351061377,6.079767952424466,-64.0996587381711,12.791329375961688,80.18836212024233,12.81987962287189
1679940593.58115,146.48944322376323,6.079766718190791,-64.09069124596333,12.7913293759798,80.18836212048522,12.81986703476921
1679940593.914422,146.48944319177306,6.079768392333364,-64.09643713534484,12.791329376016556,80.1883621207467,12.81986107925123
1679940594.24797,146.4894472828159,6.079768480984116,-64.10283537633163,12.791329376032268,80.18836212099164,12.819848928398354
1679940594.581011,146.4894468543081,6.079769417192952,-64.1087310465608,12.791329376064484,80.18836212125026,12.819841393274853
1679940594.914301,146.48944265396355,6.079767712554238,-64.10983782852566,12.79132937607984,80.18836212149169,12.819828434641543
1679940595.247593,146.48943624305699,6.079761686945335,-64.10694331649402,12.791329376022896,80.1883621215723,12.819801202127657
1679940595.580839,146.4894307596252,6.079760795068935,-64.09088768806426,12.791329376068237,80.18836212183376,12.819796014389535
1679940595.914244,146.4894246405249,6.079757357900683,-64.0784141773796,12.79132937604414,80.1883621220109,12.819774083154924
1679940596.247501,146.4894237561376,6.0797513850853,-64.07060015016461,12.791329376021611,80.18836212219763,12.819753090826849
1679940596.580805,146.48942431520211,6.079751726025165,-64.07547576471681,12.791329376044732,80.18836212245135,12.819743468940281
1679940596.914064,146.48942200403113,6.079750807146707,-64.07533610495446,12.791329376058655,80.18836212269508,12.81973100594741
1679940597.247308,146.48942035862635,6.079756004238594,-64.06535267865047,12.791329376134039,80.18836212294751,12.819737111425829
1679940597.580685,146.48941859218368,6.079761353200172,-64.05859647772499,12.791329376217767,80.18836212318767,12.81974671235235
1679940597.913831,146.48941392558328,6.079761386273638,-64.05333076922628,12.791329376261016,80.18836212345052,12.819742168244039
1679940598.247178,146.4894097722053,6.079762490708006,-64.04810972413782,12.791329376307587,80.18836212371409,12.819738628956326
1679940598.580395,146.48940973175903,6.079761895916452,-64.04888152369845,12.791329376321745,80.18836212396117,12.81972697682936
1679940598.913665,146.4894066424478,6.079759963422029,-64.04910670834774,12.791329376314888,80.18836212418421,12.819710515018327
1679940599.247015,146.48940954871367,6.079758091837032,-64.05509720939388,12.79132937630681,80.18836212440725,12.819694060833816
1679940599.580313,146.48940624788824,6.079758492886056,-64.05784303518485,12.79132937632651,80.1883621246589,12.819683730363138
1679940599.913552,146.4894062197436,6.079758501513054,-64.06430654855629,12.791329376348989,80.1883621249133,12.81967430344257
1679940600.246947,146.489405392242,6.079758931552985,-64.0648805906216,12.791329376379634,80.18836212517158,12.81966655340433
1679940600.580109,146.48940220656837,6.079758124666218,-64.0631834810309,12.791329376408818,80.18836212542853,12.81965823418507
1679940600.913384,146.48939827556222,6.079756689733934,-64.05790933481167,12.791329376439725,80.18836212568597,12.819650169829574
1679940601.246708,146.4893927476584,6.07975539741484,-64.04607365186705,12.791329376468266,80.18836212594093,12.819641128692679
1679940601.579928,146.48939185854562,6.079753981467468,-64.03713862098847,12.791329376492156,80.18836212619397,12.819631320684135
1679940601.913315,146.48938850328204,6.079752213178907,-64.02844087437272,12.79132937650206,80.18836212643595,12.819618418367298
1679940602.246478,146.4893865202097,6.079753904368906,-64.02401672345448,12.791329376554268,80.18836212669991,12.819616610410415
1679940602.579808,146.48938578330643,6.079755136529063,-64.02406870935891,12.791329376589964,80.18836212696158,12.819610678783306
1679940602.9131,146.4893849711781,6.079754619605433,-64.02467436586646,12.791329376604617,80.18836212721114,12.81959967306233
1679940603.246491,146.4893834309656,6.079755011718573,-64.02856852059622,12.791329376631372,80.18836212746938,12.81959173114356
1679940603.57977,146.4893801462126,6.079752670082263,-64.02967201502398,12.791329376620892,80.18836212769186,12.819575204378227
1679940603.913021,146.48937958404332,6.079753248094186,-64.02802047995104,12.791329376653422,80.18836212795192,12.81956829187294
1679940604.246269,146.48937700134883,6.079753072266607,-64.0243658939517,12.791329376685535,80.18836212821154,12.819561165618868
1679940604.579593,146.48937571091295,6.07975168867774,-64.02351870749438,12.791329376687495,80.18836212844896,12.819547257521677
1679940604.912809,146.48937166241862,6.0797524087891945,-64.01979755442595,12.79132937673168,80.18836212871244,12.819543295122797
1679940605.246193,146.4893689042597,6.079752754452882,-64.01472010574302,12.791329376781581,80.1883621289764,12.819540799644948
1679940605.579455,146.4893672812495,6.079751502815314,-64.01390912463636,12.791329376781226,80.18836212921269,12.819526663454138
1679940605.912769,146.48936669871102,6.079751344771742,-64.01214629274573,12.791329376798828,80.18836212946475,12.819516402685005
1679940606.245985,146.48936499007473,6.079750321740445,-64.00929185642036,12.791329376810744,80.18836212971237,12.819504848846153
1679940606.579414,146.48936630218174,6.07974862252784,-64.00931592245264,12.791329376804212,80.18836212994287,12.819489642880445
1679940606.912664,146.48936402406943,6.07974923540435,-64.00813529789173,12.791329376846667,80.18836213020637,12.819485474204656
1679940607.245964,146.48936571375322,6.079747744111677,-64.00791462324366,12.791329376857663,80.18836213045415,12.819473950923435
1679940607.579135,146.48936479414687,6.079749009330729,-64.0053361272182,12.791329376895582,80.18836213071648,12.819468556856856
1679940607.91237,146.48936263613402,6.079751065944933,-64.0024529765003,12.791329376956368,80.18836213097899,12.819469172911408
1679940608.245693,146.4893633293331,6.079752063637668,-64.00466670991278,12.79132937698362,80.18836213123801,12.819461555609495
1679940608.579027,146.48936161507888,6.079749973011299,-64.00315271098654,12.791329376975616,80.18836213146714,12.819446121498624
1679940608.912291,146.48935841279308,6.0797480446950125,-63.999754128270645,12.791329376989333,80.18836213171679,12.819435122547505
1679940609.245631,146.48935602945173,6.0797462588027935,-63.998557166761046,12.791329376983061,80.18836213194871,12.819420175387695
1679940609.578834,146.48935299228083,6.079747185444723,-63.99384004722614,12.791329377015188,80.18836213220897,12.819413331778842
1679940609.912088,146.48935014995246,6.079746137202112,-63.98868441753798,12.79132937701855,80.18836213245042,12.819400270915288
1679940610.245391,146.48934675653487,6.079746856413421,-63.98375450425814,12.79132937706404,80.18836213271415,12.8193967020297
1679940610.578745,146.48934216487504,6.079744963545149,-63.98157650147977,12.791329377060256,80.18836213295064,12.819382613414437
1679940610.91198,146.48933918082915,6.079742143619585,-63.97997614002203,12.791329377029799,80.18836213315512,12.819363806240638
1679940611.245331,146.48933907148555,6.07974486568845,-63.98056875689186,12.791329377077608,80.18836213341936,12.819361173227666
1679940611.578618,146.48933715951523,6.0797456925018,-63.98021266822132,12.79132937710719,80.18836213367965,12.819354201423533
1679940611.911832,146.48933401157333,6.0797472456359944,-63.97402157639133,12.79132937712878,80.18836213393529,12.81934514972929
1679940612.245152,146.48933175547182,6.079748094044529,-63.96912899656867,12.791329377168264,80.18836213419817,12.81934022377944
1679940612.57845,146.48932847618468,6.079748484626523,-63.96392146678394,12.791329377219325,80.18836213446211,12.819338011906567
1679940612.911731,146.48932644487755,6.079746478882562,-63.96104302258584,12.791329377219064,80.18836213470397,12.819325034986292
1679940613.245062,146.4893239033398,6.079746235323901,-63.955734931420324,12.791329377247965,80.18836213496385,12.819317851352894
1679940613.578246,146.48932081849887,6.079746780231029,-63.954248052163024,12.791329377282272,80.18836213522604,12.819312083979504
1679940613.91159,146.48932070570302,6.0797472633900655,-63.95501992776771,12.791329377311417,80.18836213548691,12.819305352095386
1679940614.244861,149.53145952921454,6.085710371103536,-63.82639659794615,12.791329377288559,80.1883621352411,12.819293550813095
1679940614.578099,149.53145695839243,6.085708779323881,-63.82340483487174,12.791329377279455,80.18836213498405,12.819302380925835
1679940614.911484,149.53145548985373,6.085707868184339,-63.82237732326265,12.791329377267063,80.18836213472541,12.819310594178912
1679940615.244791,149.5314548896228,6.085707515888856,-63.82195426948479,12.79132937724929,80.18836213446487,12.819317937318788
1679940615.578089,149.53145092638516,6.085707792250172,-63.8204631695495,12.791329377211849,80.18836213420064,12.819322147058008
1679940615.911326,149.53144887026616,6.085706342619401,-63.81911532565929,12.791329377198373,80.18836213394157,12.819330178833257
1679940616.244564,149.53144818132736,6.085705092206192,-63.817583842594736,12.79132937721007,80.18836213369474,12.819341932282256
1679940616.577843,149.5314405387376,6.085702518472665,-63.80643643950771,12.791329377174845,80.18836213343131,12.819346908036463
1679940616.911482,149.5314390947136,6.085701610824952,-63.80589472120011,12.79132937715406,80.18836213316968,12.819353667702037
1679940617.244432,149.53143915933643,6.085702394803736,-63.80666811831732,12.79132937712735,80.18836213290662,12.819359452247985
1679940617.577762,149.53143443364206,6.085703273716935,-63.80215607901432,12.791329377093616,80.18836213264287,12.819364347691751
1679940617.911055,149.53143443555564,6.085701767356047,-63.80148703404514,12.79132937710906,80.18836213239715,12.819376315044183
1679940618.244407,149.53143246873216,6.085699798814461,-63.79892996461351,12.791329377123047,80.18836213215071,12.819388134355695
1679940618.577687,152.59266746234456,6.11115813609503,-63.176257478923375,12.791329377249102,80.18836213238728,12.819390087474222
1679940618.910993,152.59266551416928,6.111159558263288,-63.174178846251074,12.791329377310296,80.18836213264845,12.81938725490265
1679940619.244188,152.59266497857945,6.11115940899859,-63.17339089875236,12.79132937730668,80.18836213291348,12.819381796944626
1679940619.577501,152.59266408659013,6.111159036255362,-63.170034730820745,12.791329377303057,80.18836213317847,12.819376315044183
1679940619.910734,152.5926598888679,6.111158544911528,-63.1646391685701,12.791329377320771,80.18836213344417,12.819371632595637
1679940620.243978,152.59265919980945,6.1111576342592935,-63.16140776348615,12.791329377248289,80.18836213369357,12.81936385578725
1679940620.577351,152.59265730530035,6.11115773992428,-63.157500991588975,12.791329377272678,80.1883621339591,12.819359443610157
1679940620.910519,152.59265386789332,6.111160447170658,-63.15603973589361,12.791329377377886,80.1883621342065,12.819358423639615
1679940621.243779,152.59265165527063,6.111161149686062,-63.15261771519229,12.791329377394744,80.18836213447223,12.819353724926719
1679940621.577153,152.59264900617407,6.111159699548047,-63.14738615042833,12.791329377385539,80.18836213473679,12.819348077915894
1679940621.910412,152.5926508843224,6.111158663800747,-63.14684068126194,12.791329377338187,80.18836213499466,12.819341247537468
1679940622.243718,152.5926482934573,6.111160055093232,-63.14654581566772,12.791329377394787,80.18836213525658,12.819338085498696
1679940622.576979,152.59264414578453,6.11116064884181,-63.14365728454602,12.791329377399064,80.18836213552214,12.819332940743523
1679940622.910252,152.5926439037804,6.111159095676328,-63.14272272722638,12.791329377361206,80.18836213578233,12.819326427561629
1679940623.243651,152.59264318641016,6.111158895235177,-63.14286847338993,12.791329377332595,80.18836213604436,12.819320218893209
1679940623.57692,152.5926403146494,6.1111585105340085,-63.143095075498024,12.79132937731486,80.18836213630807,12.819314362777746
1679940623.91016,152.59263717463455,6.111156313805871,-63.140289935141496,12.791329377240507,80.18836213655734,12.819306756889842
1679940624.243638,152.59263739429042,6.111151639717146,-63.139112473706035,12.791329377116023,80.18836213678115,12.819297935260284
1679940624.576765,152.59263517465737,6.111154848327016,-63.13484205537672,12.791329377193973,80.18836213703803,12.819295537265434
1679940624.910227,152.59263349353898,6.111153902384343,-63.13448032645446,12.791329377172426,80.18836213730125,12.81928958644315
1679940625.243341,152.59263054624398,6.11115281595642,-63.13125172974111,12.791329377163207,80.18836213756593,12.81928400827721
1679940625.576629,152.59262847853552,6.111153471606738,-63.12604763073825,12.791329377173883,80.18836213783163,12.819279077373919
1679940625.909881,152.5926263964518,6.1111525958097035,-63.12208867880088,12.791329377163336,80.18836213809622,12.819273474357349
1679940626.243556,152.5926278187303,6.111153812584884,-63.12568668323764,12.791329377174094,80.18836213836205,12.819268625632466
1679940626.57662,152.59263188785678,6.111154039041201,-63.13162107262483,12.791329377151506,80.1883621386253,12.819262729361785
1679940626.909752,152.5926302078613,6.111155762066659,-63.13517125089681,12.791329377179734,80.18836213889067,12.81925848421459
1679940627.243161,155.65485803052292,6.127387562633167,-62.723309584283356,12.791329377082638,80.18836213864522,12.81925279901961
1679940627.57638,155.6548571860947,6.127385431229504,-62.72278252700303,12.791329377148402,80.18836213838607,12.819256450991817
1679940627.909628,155.65485410815663,6.12738407778155,-62.719566346497544,12.791329377216167,80.18836213812739,12.819260051446346
1679940628.242943,155.65485218814976,6.127384870083332,-62.711267578153624,12.791329377169497,80.18836213786594,12.819265098873165
1679940628.576148,155.6548511493281,6.127384431522572,-62.705922400856856,12.791329377188354,80.18836213759978,12.819269397354459
1679940628.90942,155.654847760088,6.127383476280778,-62.69803446532021,12.791329377186402,80.18836213733333,12.819273975653243
1679940629.242762,155.65484654002145,6.127383597771674,-62.696305459665105,12.791329377182407,80.18836213706699,12.819278610474694
1679940629.576087,155.65484246953437,6.127382832307451,-62.695946807660555,12.791329377237684,80.18836213680532,12.819282276740184
1679940629.909266,155.6548413406902,6.127383461416943,-62.69281813835332,12.791329377225079,80.18836213653942,12.819287030809793
1679940630.242561,158.6870483395561,6.152910277930518,-62.22823104312511,12.791329377328948,80.18836213678635,12.819289714483784
1679940630.575866,158.6870434328553,6.1529103292853495,-62.22618031786169,12.791329377343683,80.18836213705063,12.819284059794889
1679940630.909185,158.68704286947516,6.15291137929147,-62.226866604014404,12.79132937736288,80.18836213731389,12.819278017402803
1679940631.242424,158.68704172291154,6.152910425008346,-62.22498019008428,12.791329377341096,80.18836213758141,12.819275096842722
1679940631.576147,158.6870397415906,6.152910471170595,-62.22221405924829,12.791329377354913,80.18836213784586,12.819269509987404
1679940631.909008,158.68703865385396,6.152911111801164,-62.214949758949004,12.791329377405505,80.18836213809972,12.819261329211477
1679940632.242346,158.68703703469242,6.1529089669002826,-62.209324736391494,12.791329377370218,80.1883621383666,12.819259564443737
1679940632.575645,158.68703377669055,6.152907573698022,-62.206845570175034,12.791329377336636,80.18836213863361,12.819257609405692
1679940632.908868,158.68703196727478,6.152906836570674,-62.20763808700904,12.791329377316922,80.18836213890108,12.819254474993729
1679940633.242111,161.75708766325144,6.143797219118342,-62.450052192202925,12.791329377320634,80.18836213863149,12.819253495229956
1679940633.575495,164.8115946980614,6.163880274762454,-61.99088078504598,12.791329377388406,80.18836213888781,12.819258717313195
1679940633.908757,164.81159280754682,6.16388066317629,-61.992051039822606,12.791329377430545,80.18836213913733,12.819248598877978
1679940634.242041,164.8115906020866,6.163879978673437,-61.98780483463602,12.791329377439997,80.18836213940087,12.819242428393713
1679940634.575372,164.8115897255431,6.163879537552195,-61.982623140059836,12.79132937746456,80.1883621396593,12.819234470159044
1679940634.908581,164.81158552761622,6.163879448485939,-61.97532659497737,12.791329377506633,80.18836213990924,12.819224471126633
1679940635.241925,164.81158237298698,6.163879136064055,-61.96854444588426,12.791329377543768,80.18836214016149,12.819214929447408
1679940635.575162,164.81158021785953,6.16387817363419,-61.96154734584651,12.791329377553087,80.18836214042489,12.819208681738171
1679940635.908372,164.81157684323753,6.16387710234811,-61.95941691186555,12.791329377573566,80.18836214068396,12.819200833257172
1679940636.241758,164.81157586043054,6.1638773295924345,-61.96113137230124,12.791329377594375,80.18836214094253,12.819192800573715
1679940636.575283,164.81157430202126,6.163876000149598,-61.96339003534794,12.791329377589324,80.18836214120863,12.81918801205589
1679940636.908308,164.81157147994625,6.163875360367312,-61.964606690988205,12.791329377607314,80.18836214146845,12.81918038429973
1679940637.241632,164.8115697692159,6.163875184615869,-61.96586106521737,12.791329377620725,80.18836214172993,12.81917333148314
1679940637.574949,164.8115677905586,6.163874192398482,-61.96576995495907,12.791329377596485,80.1883621419978,12.819171104460324
1679940637.908261,164.81156605814803,6.163872786468872,-61.96232963566712,12.791329377600613,80.18836214226232,12.819165368552778
1679940638.241514,164.81156226655597,6.163872155892604,-61.95547577464244,12.79132937765857,80.18836214250038,12.819153174768504
1679940638.574775,164.81155916163786,6.16387314728708,-61.948368267027824,12.79132937772723,80.18836214272899,12.819139602000162
1679940638.9081,164.8115592484285,6.163872102697818,-61.94644964847331,12.791329377690774,80.18836214299616,12.819139101560928
1679940639.241313,164.81155874073914,6.163870209571614,-61.939266241610596,12.791329377683107,80.18836214326305,12.81913490808606
1679940639.574573,164.8115572484713,6.163871628685779,-61.93252088348463,12.791329377761812,80.18836214347974,12.819119789097556
1679940639.907854,164.81155401496545,6.163871697938637,-61.92624734721193,12.791329377803745,80.18836214372683,12.819108983998033
1679940640.241319,164.81155174895193,6.163871655165286,-61.92206370133348,12.79132937782878,80.18836214398291,12.819100197673352
1679940640.57442,164.81154955498718,6.163874112781714,-61.92619752016566,12.791329377890868,80.18836214421218,12.819086368070181
1679940640.907728,164.81155085605312,6.163874256927994,-61.93202619381301,12.791329377892259,80.18836214447627,12.819080389621089
1679940641.241022,164.81155132594253,6.163872011153956,-61.935227108496385,12.79132937786109,80.18836214474388,12.819079015332717
1679940641.574336,164.811550636357,6.163870883791372,-61.935931489183,12.791329377858474,80.18836214500936,12.81907381799701
1679940641.907611,164.81154855246638,6.1638710924001865,-61.93544986000075,12.791329377906646,80.18836214525179,12.819062120967578
1679940642.240873,164.81154490374303,6.163870913190644,-61.92993391563169,12.791329377950307,80.18836214549785,12.819051125803947
1679940642.574194,164.8115448878449,6.163871322695042,-61.92928180007563,12.791329377985967,80.18836214574804,12.819040907006455
1679940642.907651,164.8115435549754,6.163872120072342,-61.92993857029383,12.791329378010241,80.18836214600415,12.819032096894
1679940643.240779,164.81154039022522,6.163870316657117,-61.93263406723029,12.791329377987667,80.1883621462719,12.819029533634122
1679940643.574079,164.81153706601634,6.16386627206788,-61.93017906875547,12.791329377923612,80.18836214653159,12.819033106358745
1679940643.907395,164.8115347491157,6.163868665658478,-61.925732656666035,12.791329377993584,80.18836214675564,12.819018743736093
1679940644.24057,164.8115293908186,6.163870126051604,-61.92447116288683,12.791329378077693,80.18836214696323,12.819002514218553
1679940644.573788,164.81152779945603,6.1638708321373485,-61.92008766921571,12.79132937812201,80.18836214720798,12.81899121044467
1679940644.907295,164.8115239343745,6.163871405610227,-61.9092551448529,12.791329378173717,80.18836214744782,12.818979077878758
1679940645.240459,164.81152773733254,6.1638747583260844,-61.89105537160462,12.791329378222127,80.18836214769026,12.818967395039513
1679940645.573811,164.8115416091822,6.163878416539138,-61.86799876823963,12.791329378252351,80.18836214794412,12.818958061608265
1679940645.907118,164.81155225409333,6.163879090245823,-61.85061453524999,12.791329378255291,80.18836214820858,12.818952278878736
1679940646.240326,164.81155971470417,6.163883365433776,-61.840331507683416,12.79132937828643,80.18836214845813,12.818941696320474
1679940646.573611,164.81156702338382,6.163884674984522,-61.82690681747884,12.791329378304043,80.18836214871558,12.818933168904787
1679940646.906967,164.81157559221373,6.163886643154222,-61.80757607660552,12.791329378327639,80.18836214896982,12.818923720921076
1679940647.240197,164.8115786234378,6.163885837614113,-61.78662904087654,12.791329378330058,80.18836214923375,12.818917662213092
