Timestamps,Roll_N,Pitch_E,Yaw_U,Latitude,Longitude,Altitude
1679940139.415821,-0.83,-5.36,-84.27,12.786480904,80.187889099,11.98
1679940139.748597,-0.8300106781172458,-5.36000280327099,-84.28178561432814,12.786480904013724,80.18788909914154,11.979975110094557
1679940140.082381,-0.8300228903746371,-5.360007993450134,-84.29239799738261,12.786480903984467,80.18788909929484,11.979951227319681
1679940140.415663,-0.8300322317271048,-5.360011347592532,-84.30435185134284,12.786480903961605,80.18788909944725,11.979927190848407
1679940140.748975,-0.830029736977532,-5.360011562740743,-84.29327094677673,12.786480903920985,80.1878890993118,11.979952121220654
1679940141.082383,-0.8300183157079007,-5.360006162501338,-84.27201705754203,12.786480903940847,80.18788909915818,11.979976098444643
1679940141.415463,-0.8300124731960095,-5.360005190959702,-84.2571657908721,12.786480903918385,80.18788909901866,11.980001043264775
1679940141.748856,-0.8300100134179071,-5.360002117700695,-84.25473198117541,12.786480903968926,80.18788909886145,11.980024179168307
1679940142.082137,-0.8300061997223506,-5.360001151481171,-84.24965261725792,12.786480903954814,80.18788909872065,11.980049115402155
1679940142.415332,-0.8300014626438349,-5.3600022062185255,-84.23997764581797,12.786480903894404,80.18788909859829,11.98007435135074
1679940142.748138,-0.8299951174465935,-5.359999921288396,-84.22346184278348,12.786480903884705,80.1878890984567,11.980099259854695
1679940143.081426,-0.829995491752958,-5.3600008931532415,-84.22344149418335,12.786480903812546,80.18788909834252,11.980124568384102
1679940143.414919,2.2915661840102226,-5.427008872279015,-86.78681264263624,12.786480904061355,80.18788909827593,11.980131501694824
1679940143.747998,2.291564468849607,-5.427009280269123,-86.78565062114868,12.786480904164716,80.18788909842587,11.980152998900143
1679940144.081419,5.384482510465998,-5.3649867406775344,-84.96839958834535,12.786480904383769,80.18788909857476,11.980149939091596
1679940144.414765,8.434979728469209,-5.325639518004761,-84.13870541425604,12.786480904444684,80.18788909873805,11.980172259433521
1679940144.748047,8.43497911240905,-5.3256357985492055,-84.12470754981837,12.786480904298921,80.1878890988952,11.980154743719144
1679940145.081133,8.434978430523026,-5.325634279351647,-84.1175659306662,12.786480904207352,80.18788909904757,11.98013279577584
1679940145.414514,8.43497903181567,-5.325636310494613,-84.1143222866854,12.786480904216212,80.18788909917181,11.98010681573212
1679940145.747774,8.434979180465948,-5.3256357715861755,-84.11147103264817,12.786480904153683,80.18788909931774,11.980083170854606
1679940146.08111,8.434980044123463,-5.325631132809377,-84.12298857612866,12.786480903991595,80.18788909947038,11.980066990233144
1679940146.414461,8.434979673137578,-5.325632711903096,-84.13600043277117,12.78648090400732,80.18788909959201,11.980040902252185
1679940146.747639,8.434979772908363,-5.325637139193717,-84.13906144949635,12.786480904110029,80.18788909967338,11.980015390273605
1679940147.080959,8.43497765120807,-5.325636142548846,-84.13999318243158,12.786480904026691,80.18788909982399,11.979992906586183
1679940147.414202,8.434976340907356,-5.325640018412618,-84.14056979328402,12.7864809041007,80.18788909992152,11.979966853156476
1679940147.747719,11.505991016170782,-5.341910107534245,-84.57867570643447,12.7864809041829,80.18788909983697,11.979940566628189
1679940148.08078,11.505992050422975,-5.341910244366811,-84.5805035750444,12.78648090414041,80.18788909968839,11.979964560168048
1679940148.413997,11.50598769875326,-5.3419095082442345,-84.5750528122783,12.78648090418879,80.18788909952933,11.979987603541982
1679940148.74733,14.59226382316561,-5.3090488557689035,-83.4828051554078,12.78648090436178,80.18788909953348,11.980009773923477
1679940149.080582,14.59226118614107,-5.309048615433837,-83.47367899960032,12.786480904155612,80.1878890996865,11.980001916154151
1679940149.414039,14.592257204627039,-5.3090500926809465,-83.46730874761124,12.78648090397419,80.18788909983074,11.979987428730931
1679940149.747173,14.592256769729248,-5.3090474902581954,-83.47044431013413,12.786480903752933,80.18788909997888,11.97998776016918
1679940150.080481,14.592257338138431,-5.309049296608745,-83.47515942390316,12.786480903595685,80.18788910010944,11.979968935925903
1679940150.413732,14.592258361320388,-5.309051286814314,-83.47490751719275,12.78648090344466,80.1878891002385,11.97994937835094
1679940150.747137,14.592257115561527,-5.309051229196606,-83.47680784156351,12.786480903245359,80.18788910038705,11.979938813171378
1679940151.080313,14.592256921122033,-5.30905136980127,-83.47346401156787,12.78648090305566,80.18788910053385,11.979926025664698
1679940151.413848,14.592251833968607,-5.309051742991726,-83.46693542114026,12.786480902845184,80.18788910068676,11.979919687242319
1679940151.746923,14.592247606924301,-5.3090515862714085,-83.46554249430244,12.786480902632249,80.18788910083866,11.97991411569159
1679940152.080194,14.592249860120198,-5.309052737022564,-83.46013232551996,12.786480902467803,80.18788910097456,11.979896530275662
1679940152.413477,14.59224223920131,-5.309054210190292,-83.44821503013668,12.786480902263376,80.18788910112757,11.979888133831418
1679940152.746974,14.592236943755875,-5.309055263401003,-83.44119125286872,12.786480902056612,80.18788910127972,11.979880271314835
1679940153.080017,14.592231707180131,-5.309055638143156,-83.43663532995627,12.786480901849488,80.18788910143124,11.979872380057076
1679940153.413321,14.592232904285067,-5.309055168535071,-83.43882463733051,12.786480901654786,80.18788910157684,11.97986037386993
1679940153.746741,14.592232227648086,-5.309057112644787,-83.43951827850745,12.786480901477432,80.18788910171546,11.979844675400784
1679940154.079881,14.59222751422369,-5.309061118976533,-83.43923647220473,12.786480901356885,80.18788910182457,11.979821442065807
1679940154.413145,14.592223258503713,-5.309063263013961,-83.43819597600563,12.786480901171975,80.18788910196706,11.97980729451253
1679940154.746548,14.59222263010835,-5.309063157943482,-83.43544569943455,12.786480900975882,80.18788910211451,11.979795846040851
1679940155.07977,14.592217261041545,-5.309061797264502,-83.42910902993442,12.786480900760882,80.18788910226752,11.97979181010141
1679940155.413001,14.592217683944408,-5.3090611868014275,-83.4352866789498,12.786480900556155,80.1878891024154,11.979782472934222
1679940155.746534,14.592215849517185,-5.309065513616543,-83.43318605941141,12.786480900403914,80.18788910254185,11.979762831364411
1679940156.079647,14.592213645466224,-5.309064860866214,-83.43604015865297,12.786480900203577,80.18788910268924,11.979752312955293
1679940156.412875,14.592209369801255,-5.309067263335874,-83.4403948627296,12.786480900029636,80.18788910282524,11.979735893425183
1679940156.746131,14.592208444776913,-5.309067622113987,-83.4396705232074,12.786480899833833,80.18788910297215,11.979724302619601
1679940157.079483,14.592206422579299,-5.309065312126164,-83.43771995296811,12.786480899615638,80.1878891031237,11.97972216433886
1679940157.412857,14.592202465377621,-5.309060091588366,-83.42619616558675,12.78648089939707,80.18788910327169,11.979726052185857
1679940157.746117,14.592195740943346,-5.309051490788088,-83.40975286139536,12.786480899195704,80.18788910339984,11.9797390172798
1679940158.079338,14.592196809157988,-5.3090477977860395,-83.39196455749081,12.78648089898082,80.18788910355526,11.979736180972258
1679940158.412575,17.645349333821827,-5.42479908389866,-85.21772880528847,12.78648089900084,80.1878891035395,11.97970702368824
1679940158.745892,17.645346001348976,-5.424810230980156,-85.20559647696739,12.786480898744085,80.18788910349369,11.979701886662689
1679940159.079239,17.645337287168566,-5.4248131967952,-85.19258996987062,12.786480898534041,80.18788910335614,11.979711629613872
1679940159.412492,17.645335403314036,-5.424810423900764,-85.18908778628023,12.78648089852378,80.18788910318523,11.979734262353496
1679940159.745748,17.645334696557022,-5.424807755999957,-85.18514261199796,12.786480898503742,80.18788910301275,11.979756673357036
1679940160.079004,17.645337811161454,-5.424800265008732,-85.18774452855276,12.786480898547062,80.18788910285384,11.979779853306331
1679940160.412353,17.645342347619913,-5.424792362606846,-85.19529914035465,12.786480898589819,80.18788910269491,11.979803043606832
1679940160.74576,17.645338665029165,-5.424798774120282,-85.18483836145647,12.786480898347673,80.18788910259175,11.979806898976681
1679940161.078883,14.513765204385214,-5.356381061175476,-88.04402162903268,12.78648089857195,80.18788910257,11.97979151114031
1679940161.412115,14.513770847580018,-5.356367908433616,-88.07407003206443,12.78648089870884,80.18788910270561,11.979811803966474
1679940161.745493,14.513783827497111,-5.356362729731884,-88.09541387295728,12.78648089863855,80.18788910286379,11.979834221791371
1679940162.078746,14.513785380513061,-5.356371382850943,-88.10315254656946,12.786480898380423,80.18788910291305,11.979837952051414
1679940162.412005,11.422601180461143,-5.432689256845878,-86.13589233483096,12.786480898550076,80.18788910296755,11.979816256144177
1679940162.745303,14.344353181571261,-5.46455966001068,-86.40018432662723,12.78648089829474,80.18788910303087,11.979812680694879
1679940163.078722,14.344349723730792,-5.464564349680405,-86.36921224423585,12.786480898482806,80.18788910319982,11.979822092310874
1679940163.411908,14.344342900212428,-5.464567513681731,-86.34655716111916,12.786480898678981,80.18788910337771,11.979825822519388
1679940163.745227,14.344340788513582,-5.464563621347966,-86.33479815904725,12.7864808988333,80.18788910352826,11.979808520708447
1679940164.078519,14.344338400026658,-5.464558864709058,-86.32879763816281,12.78648089895799,80.18788910365656,11.979786756110947
1679940164.411704,14.344335658952692,-5.4645595982986075,-86.32500359546597,12.786480899152359,80.1878891038395,11.979787821840638
1679940164.745022,14.344333088970673,-5.464556682445016,-86.32842468312045,12.786480899313931,80.18788910400315,11.979772897064501
1679940165.078409,14.344334013075082,-5.464561824020081,-86.32285187726627,12.786480899474103,80.18788910414393,11.979790512181367
1679940165.411651,14.344333782071315,-5.464569824573471,-86.31230844580482,12.786480899621361,80.18788910426878,11.979810731518482
1679940165.744955,14.344333880338269,-5.464572100497409,-86.30457694701914,12.78648089981414,80.18788910444486,11.979816868462734
1679940166.078298,17.42304182847298,-5.451711491247993,-85.88994466214206,12.786480899908296,80.18788910419407,11.979814047305187
1679940166.411529,17.423038832936605,-5.451712427727086,-85.9031110080238,12.786480899735531,80.1878891040101,11.979823722422804
1679940166.744834,17.423038255266423,-5.451710586101348,-85.91293269575043,12.786480899606698,80.18788910383438,11.97984077694493
1679940167.078021,17.42304390883399,-5.451708330882205,-85.9208495766739,12.786480899443365,80.1878891036517,11.97985252736004
1679940167.411494,17.423043482518853,-5.451709655048252,-85.92150239942461,12.786480899256755,80.18788910347098,11.97985936505577
1679940167.744574,17.42303910394739,-5.451716050910126,-85.91602343988835,12.786480899046152,80.18788910333797,11.97984904433728
1679940168.07786,20.468859781859614,-5.408315413966867,-85.05012334120408,12.78648089909384,80.18788910354411,11.979867185703752
1679940168.411136,20.468855022160625,-5.40831339731583,-85.04063930816409,12.786480898952082,80.18788910367175,11.979846692204628
1679940168.744506,20.46885144912694,-5.408312447361897,-85.0310419158595,12.78648089886195,80.18788910382233,11.979824528438373
1679940169.077646,20.468852283267438,-5.408312430852022,-85.02707375460656,12.786480898856748,80.18788910399242,11.979801798421894
1679940169.41097,20.468849252741148,-5.40830999214988,-85.0292667550933,12.786480898730394,80.18788910412896,11.979780753874072
1679940169.744334,20.468845513859865,-5.408312516035863,-85.03618536736592,12.786480898813469,80.1878891043001,11.979760059805049
1679940170.077842,20.468844023975983,-5.408317238798533,-85.03852539348121,12.786480898995128,80.18788910444307,11.979745461668376
1679940170.410812,23.507793254046817,-5.419817759294127,-85.25059037625059,12.78648089909273,80.18788910428124,11.979724661684685
1679940170.744073,23.507790017705748,-5.419818502100815,-85.24547328283313,12.786480899078423,80.18788910411286,11.979747492011878
1679940171.077464,23.507788235601314,-5.419816807308907,-85.23856135868549,12.786480899095947,80.18788910395143,11.979770879094781
1679940171.410768,26.58600626728597,-5.406279947959482,-84.799328421151,12.786480899163877,80.18788910410106,11.97979406389439
1679940171.744092,26.586000499833467,-5.406279487946102,-84.7924216991657,12.786480898954622,80.18788910421011,11.979780578154793
1679940172.077322,26.58599424754012,-5.406278007481834,-84.78834415348719,12.78648089872129,80.18788910429576,11.979770321327784
1679940172.41078,29.640266510443084,-5.383234229492968,-84.2625727846138,12.786480898532604,80.18788910420693,11.979752176328402
1679940172.743894,29.64026743013343,-5.383234505340414,-84.2630147140704,12.786480898712178,80.18788910404916,11.979765209255913
1679940173.077198,29.640268532938983,-5.38324276082212,-84.25487453945529,12.786480898736993,80.18788910389151,11.979788817971839
1679940173.410497,32.72458951089768,-5.327975455416244,-82.71309427116107,12.786480898647664,80.18788910414317,11.979792518530946
1679940173.74372,32.72458548495727,-5.3279831443423875,-82.71622058788559,12.78648089842656,80.18788910423737,11.97978006715824
1679940174.077034,32.72458880415323,-5.3279899238777055,-82.70740405431783,12.78648089822974,80.18788910439416,11.979789763442039
1679940174.410347,32.72459059595026,-5.327984398768222,-82.70449616721694,12.786480898228971,80.1878891044876,11.979817241769581
1679940174.743602,35.854163930941745,-5.269645468491272,-79.95540600103826,12.786480898367751,80.18788910456485,11.979793746697908
1679940175.076843,38.99484078920925,-5.221917513675535,-76.84335390221308,12.786480898462628,80.18788910453708,11.979766567228406
1679940175.410164,38.99484462846221,-5.221917580757025,-76.83111142603907,12.78648089826952,80.18788910465908,11.979781603729283
1679940175.743398,42.06789100670284,-5.234390782612258,-77.17567714775457,12.78648089811361,80.18788910445342,11.979789466297394
1679940176.076666,42.0678861358616,-5.234396238478824,-77.17159672247998,12.786480898314068,80.18788910432329,11.979802371390415
1679940176.410029,42.067880660430525,-5.2343975942669445,-77.16554417550617,12.786480898534764,80.18788910420538,11.97979246888123
1679940176.743304,42.067883739539845,-5.234394048804944,-77.16222961989935,12.786480898730234,80.18788910410956,11.979775674227819
1679940177.076579,45.18416457448775,-5.300155620673765,-79.57841143558687,12.786480898601221,80.18788910414115,11.97980102291243
1679940177.409792,45.18416799837388,-5.300154744864024,-79.5988792954191,12.786480898703175,80.18788910427543,11.979778256476717
1679940177.743151,48.28191326418349,-5.319212387604646,-80.41525076857681,12.786480898942633,80.18788910431209,11.979766408784753
1679940178.076399,48.28191617571277,-5.319214117021596,-80.42250340746264,12.786480898722427,80.18788910416241,11.979767060949335
1679940178.409743,48.2819128096695,-5.319215692065719,-80.41041351847835,12.786480898503385,80.1878891040367,11.979776251086896
1679940178.74298,48.281903687956145,-5.3192086371565415,-80.39780717438057,12.78648089848898,80.18788910408134,11.979805094961929
1679940179.076364,48.28190089019268,-5.319208382682627,-80.37625939443392,12.786480898287222,80.18788910397812,11.979820398101346
1679940179.40964,48.281897329820296,-5.319216377023125,-80.35326379209064,12.78648089808572,80.18788910383046,11.979810199561863
1679940179.742903,48.28189511820212,-5.319222886361701,-80.34662345359413,12.786480897884314,80.18788910367948,11.979800570100343
1679940180.07612,48.28189638323594,-5.31921473400483,-80.35249313388445,12.786480897762678,80.18788910363311,11.979826093699065
1679940180.409509,48.28189663374331,-5.31921048324335,-80.35843328599424,12.786480897599466,80.18788910355242,11.979847428467115
1679940180.742777,48.281896229354636,-5.319215201045845,-80.36440930491138,12.786480897390623,80.18788910339734,11.979841055648075
1679940181.075995,51.340595910820035,-5.277664088288933,-79.43090258209016,12.78648089735967,80.18788910359997,11.979860084145692
1679940181.409327,54.42799449373643,-5.22348517791751,-77.85243741287822,12.78648089741923,80.18788910346944,11.979884857890738
1679940181.742597,57.40771026570104,-5.1858945323780645,-77.3835492601238,12.786480897677361,80.18788910341708,11.979881668328188
1679940182.075988,57.40770531528992,-5.185894922201793,-77.37457818428605,12.786480897479237,80.18788910347924,11.979899889747418
1679940182.409138,57.40769781734007,-5.185896286707656,-77.36252796413136,12.786480897293627,80.1878891035336,11.979919926750016
1679940182.74247,57.407693826641975,-5.185895940377681,-77.3539367709245,12.786480897115668,80.18788910358319,11.97994093583836
1679940183.075791,60.45499112182724,-5.148319036621096,-76.5884293862152,12.786480896955432,80.18788910365558,11.97996288852892
1679940183.40899,60.454992065613155,-5.1483206412774125,-76.59302158880129,12.786480897045152,80.18788910357497,11.979936754840335
1679940183.742322,60.45499363531044,-5.148321868750563,-76.5992197895741,12.786480897141075,80.18788910349281,11.97991095152718
1679940184.075584,63.52423387871322,-5.146161260853934,-76.53017687821341,12.786480897209875,80.18788910355485,11.979883478049953
1679940184.408854,63.524232366785704,-5.146163890989673,-76.52917901054286,12.786480897086928,80.18788910365063,11.979907243341549
1679940184.742091,63.524227950057025,-5.146164614405974,-76.52556171964963,12.786480897108195,80.1878891036939,11.97993605868152
1679940185.07543,63.524224191462714,-5.146166163542656,-76.51211587555623,12.786480897146895,80.18788910372965,11.979964773762308
1679940185.408642,63.524221457984595,-5.146164311916313,-76.5003136199726,12.786480897240942,80.18788910374025,11.979992129859314
1679940185.742002,66.61535325795334,-5.085908970388601,-74.74423616963097,12.786480897249444,80.187889103917,11.979970021449784
1679940186.075353,66.61535345951931,-5.08590923578467,-74.74680582420265,12.786480896991518,80.18788910386137,11.979972719417038
1679940186.408653,66.6153543579902,-5.085911770177548,-74.75080318578429,12.786480896739535,80.18788910378755,11.979968640597711
1679940186.741863,66.61535302301867,-5.085910669106945,-74.75651213997523,12.78648089649183,80.18788910375434,11.979978338697967
1679940187.075142,66.61535673867019,-5.085911449152599,-74.76412448866124,12.78648089623473,80.18788910368994,11.979978043575894
1679940187.408415,66.61535846583415,-5.085914857150831,-74.76764718941315,12.786480895985896,80.18788910361373,11.979972412726353
1679940187.741861,66.61536178811455,-5.085916412725232,-74.76304189318448,12.786480895727383,80.18788910355565,11.979972936148219
1679940188.075001,66.61535835376796,-5.085915606528643,-74.75114659271779,12.786480895504056,80.18788910355117,11.979988663049365
1679940188.408224,66.6153508500139,-5.085914961498002,-74.73377731474932,12.786480895370659,80.18788910359302,11.980013553369467
1679940188.74156,69.73308358070852,-4.893068726151619,-71.82828670620711,12.78648089535069,80.18788910354067,11.979984903242975
1679940189.074815,69.73307745908394,-4.893065007887492,-71.82479403846406,12.786480895183184,80.18788910351971,11.980007472947817
1679940189.408107,72.80271033844635,-4.904628439336149,-72.1215799712788,12.786480894952886,80.18788910340366,11.980000396240378
1679940189.741375,72.80270785036653,-4.9046312989320064,-72.10970449594325,12.786480895187795,80.18788910337135,11.980013445483756
1679940190.074736,75.86187685289893,-4.86181683058433,-71.13857281117225,12.786480895325887,80.18788910314542,11.98000866282756
1679940190.407997,75.8618751671907,-4.8618170237736535,-71.14248137458421,12.786480895133323,80.1878891031591,11.980028712152409
1679940190.741325,75.86187538436175,-4.861815982665219,-71.15099000978294,12.786480894970214,80.18788910316604,11.980051770830924
1679940191.074613,75.86187818585478,-4.861811093871608,-71.16872585179232,12.786480894865234,80.18788910316185,11.980078655126823
1679940191.407903,78.93450509195908,-4.896466664580903,-72.10958710747562,12.786480894750484,80.18788910292555,11.980084862680853
1679940191.741108,78.9345078315562,-4.896473337739329,-72.10912135479488,12.7864808949464,80.18788910288733,11.980104125030683
1679940192.074526,78.93450894622761,-4.896476376892537,-72.09897699202915,12.786480895191117,80.18788910285969,11.980114896641746
1679940192.407709,78.93450523397941,-4.896475212781329,-72.09026353546867,12.786480895433245,80.18788910287033,11.980103101427238
1679940192.74104,78.93450143177799,-4.896479560701988,-72.08185280487399,12.786480895658775,80.18788910283614,11.98011798993873
1679940193.074303,78.93449927506096,-4.896482726189259,-72.0701719627602,12.786480895907323,80.18788910280867,11.980127634601772
1679940193.407517,81.99013646432255,-4.830466505805703,-70.74237244923559,12.786480895926617,80.1878891025759,11.98011298186201
1679940193.740882,81.99012672670196,-4.8304660957393315,-70.7254253083133,12.786480896061292,80.18788910255581,11.980138107097146
1679940194.074152,81.99012114083159,-4.830464221261266,-70.71686796532806,12.78648089617473,80.18788910254001,11.980164517775481
1679940194.407482,85.06652577154289,-4.787257128473138,-69.53849329451609,12.78648089621497,80.18788910246552,11.980192316024189
1679940194.740689,85.06652569473763,-4.787252861603582,-69.54338511007745,12.786480895950652,80.18788910247154,11.980190737481486
1679940195.073947,88.13298438235867,-4.802139110014011,-69.92528052861012,12.786480895777569,80.18788910240193,11.980169900170333
1679940195.4072,88.1329843243555,-4.802139179880128,-69.92616065841936,12.78648089594991,80.18788910240333,11.980192135557655
1679940195.740523,91.19674341889349,-4.795828243064461,-69.75175289440976,12.786480896127646,80.18788910236006,11.980213331933891
1679940196.073937,91.19674032697822,-4.795829107132593,-69.75062189013993,12.786480895905898,80.18788910236165,11.980197326980177
1679940196.407121,91.19673924431483,-4.795826727926794,-69.75065058836564,12.78648089565225,80.18788910236931,11.980188968771623
1679940196.740446,91.19673994073169,-4.795826576015855,-69.74958952372157,12.786480895434774,80.1878891023702,11.980172260940797
1679940197.073752,91.19674099021165,-4.795828518496634,-69.74720918422553,12.786480895243335,80.18788910236779,11.980152028218614
1679940197.407029,91.19673839287958,-4.79582718905003,-69.75285873943602,12.786480894980466,80.18788910237748,11.9801486903575
1679940197.740468,91.19673117814521,-4.795830774470155,-69.7610809328459,12.786480894802175,80.18788910237176,11.980127045265853
1679940198.073559,91.19672842108129,-4.795835246371526,-69.75395397484998,12.78648089467988,80.18788910236296,11.980101083457518
1679940198.406898,94.26083423161153,-4.6963772303532405,-67.91464756345994,12.786480894637723,80.18788910210772,11.98009282161759
1679940198.740182,94.26082171807325,-4.696376771199074,-67.89066022254062,12.786480894402574,80.18788910211786,11.98007940386615
1679940199.073392,97.30179284346809,-4.643505713887362,-66.90646722006609,12.786480894342253,80.18788910215403,11.980051155684626
1679940199.406681,97.3017958689439,-4.643506720402358,-66.90490318450344,12.786480894506793,80.18788910215315,11.980074104557916
1679940199.739925,97.30180079497936,-4.643508760997728,-66.9144457084547,12.786480894652358,80.18788910215562,11.980098570704051
1679940200.073274,97.30180372138204,-4.643507149552838,-66.93494971819692,12.78648089485759,80.1878891021552,11.980117077905435
1679940200.406613,97.30180694036507,-4.643509829424965,-66.95508869950676,12.786480894953284,80.18788910216158,11.980144379553941
1679940200.739786,100.3823490199145,-4.64115562061524,-66.87101650060757,12.786480895137544,80.18788910214028,11.980165287474874
1679940201.073121,100.38234913509577,-4.6411570338827035,-66.86461709594971,12.786480894932893,80.18788910214563,11.980146711686285
1679940201.406424,100.38234527770932,-4.64115507524635,-66.85181475651385,12.78648089466906,80.1878891021646,11.980148059101452
1679940201.739753,100.38233530372042,-4.641157044429248,-66.83056606235088,12.786480894405484,80.1878891021844,11.980146308575442
1679940202.072935,100.38232920092692,-4.641159266275118,-66.80668115771533,12.7864808941591,80.1878891021994,11.98013570803946
1679940202.406405,100.3823252463371,-4.64116009391395,-66.79126494914338,12.78648089390119,80.18788910221453,11.980129289461264
1679940202.739528,100.38231841697184,-4.641158300379038,-66.77834557696335,12.786480893640924,80.18788910223404,11.98013423440014
1679940203.072939,100.38231733110992,-4.641157879163782,-66.76902635702068,12.786480893395884,80.1878891022442,11.98012319459173
1679940203.406066,103.44846712727397,-4.649424781418743,-66.97606754797279,12.786480893196254,80.1878891021916,11.98010482028127
1679940203.739386,103.44846698758732,-4.649424782018291,-66.9872779902914,12.786480893412271,80.18788910218767,11.980121751561573
1679940204.07293,103.44846867581767,-4.649426360483408,-66.99736883632039,12.786480893576487,80.18788910218746,11.980144728010167
1679940204.406026,106.48610486218543,-4.66028909295326,-67.19694685031233,12.786480893760979,80.18788910221114,11.980165579614615
1679940204.739321,109.57591270874217,-4.587199138734071,-65.28179283444246,12.786480893694073,80.18788910195222,11.980161991688476
1679940205.072517,112.61233670480377,-4.52026086999272,-64.13542480266021,12.786480893667663,80.18788910199501,11.980133220188147
1679940205.405931,115.69119115853826,-4.4841590955932835,-63.075997140688685,12.786480893747393,80.18788910174567,11.98014008864763
1679940205.739111,115.69119434783356,-4.48415680547053,-63.07711125613942,12.78648089353366,80.1878891016989,11.98015661404088
1679940206.072426,118.75188674087032,-4.484014418881274,-63.07064784316253,12.786480893288566,80.18788910172164,11.980167417066273
1679940206.405711,118.75188439389315,-4.484018738423492,-63.07133502836362,12.786480893551344,80.18788910172931,11.98017090387653
1679940206.738961,118.75188179324803,-4.484021627826598,-63.06529026716591,12.786480893808518,80.1878891017554,11.980164541614815
1679940207.072226,118.7518792090514,-4.484021457562765,-63.058456953257405,12.786480893997183,80.18788910180568,11.980144728010167
1679940207.405661,118.75187525088943,-4.484020732997804,-63.05407560913311,12.786480894137089,80.18788910186275,11.980120642848936
1679940207.738921,121.8088961443181,-4.4876736195208,-63.124237202636515,12.786480894375975,80.18788910183481,11.980108379620818
1679940208.072171,121.8088972061144,-4.487675100888342,-63.12328279396404,12.786480894143304,80.18788910179278,11.980121592003574
1679940208.405512,124.88781393974614,-4.431470720458572,-61.65903085584576,12.78648089409214,80.18788910169387,11.980094935099242
1679940208.73882,127.97824274574555,-4.411152249688011,-60.89538982324852,12.786480893907976,80.18788910176383,11.980075308782483
1679940209.072036,127.97824368315966,-4.411155344784515,-60.89568402955799,12.786480894126509,80.18788910171533,11.98009098517722
1679940209.405268,131.03590056725258,-4.3837387412607685,-60.24859435450693,12.786480894368523,80.18788910160617,11.98009018006988
1679940209.738837,134.0884441680238,-4.336126828892921,-59.24779958912275,12.786480894216417,80.1878891016828,11.9801126666881
1679940210.071883,134.08844087143183,-4.336125730754183,-59.235005791279704,12.786480894132394,80.18788910158521,11.980086989444512
1679940210.405366,134.08843298293257,-4.336124950263418,-59.23025578917105,12.786480893969093,80.1878891014899,11.980066385231936
1679940210.73852,134.08843286658612,-4.336125674550374,-59.22959385221975,12.786480893967841,80.18788910139969,11.980038781691526
1679940211.071667,134.0884355201178,-4.336124566121553,-59.23306109057221,12.786480893932154,80.18788910130469,11.980011652934557
1679940211.405002,134.08843180953414,-4.336127208510729,-59.236404945532755,12.786480893993973,80.18788910122706,11.97998444669492
1679940211.738209,137.15857239554919,-4.358897483794481,-59.83605926975283,12.786480894037688,80.1878891013304,11.979957826003703
1679940212.071542,140.23098475922797,-4.380212781419877,-60.41928583088289,12.78648089391258,80.1878891011526,11.979974965377373
1679940212.404859,140.23098352217033,-4.380212748018795,-60.41604119548927,12.786480894106266,80.18788910106495,11.979957408548035
1679940212.738178,140.23098111456602,-4.380211191256571,-60.41208984128362,12.786480894249308,80.18788910097697,11.979934687014781
1679940213.071417,140.23097784903757,-4.380209525187254,-60.40750958942291,12.78648089437797,80.18788910088972,11.979910904653678
1679940213.404736,140.23097414239837,-4.380208878132649,-60.40064569101325,12.786480894516226,80.18788910080147,11.97988783370444
1679940213.738009,140.23097202062476,-4.380207353303823,-60.39366952660982,12.786480894663077,80.18788910071272,11.97986544542589
1679940214.071289,143.27613704566915,-4.40221189543487,-60.827787063308314,12.786480894862827,80.18788910087237,11.97985712732101
1679940214.404517,143.27613462306718,-4.402212461162161,-60.82531561248507,12.78648089462552,80.18788910095502,11.979866517822352
1679940214.737847,146.3604205822561,-4.356530956536773,-59.467027388668264,12.78648089451644,80.1878891011011,11.979887982602053
1679940215.071073,149.42302838095625,-4.329724668416948,-58.79597587449073,12.786480894492083,80.18788910121874,11.979861761079594
1679940215.40443,149.4230258886158,-4.329725499590019,-58.79019868395447,12.786480894683544,80.18788910131836,11.979878859441362
1679940215.737671,149.42302420486155,-4.329723983339095,-58.78600923808852,12.786480894915783,80.18788910141379,11.979888374092754
1679940216.070998,149.42302419650716,-4.329723853786968,-58.78794518635253,12.786480895105573,80.18788910151488,11.97990559766739
1679940216.404263,149.42302522687714,-4.329726828993529,-58.7951933729523,12.78648089519418,80.1878891016037,11.979931461239113
1679940216.737561,152.47480459770185,-4.328797965188858,-58.76483210738683,12.78648089536156,80.18788910148845,11.979950395989723
1679940217.070886,152.47480212878358,-4.328797853456543,-58.770285804885084,12.786480895133298,80.18788910138923,11.979940187099032
1679940217.404088,152.47480316645036,-4.3288009496741875,-58.766096961570675,12.786480894992387,80.1878891012932,11.979917688003969
1679940217.737445,152.47480317159614,-4.328800399157565,-58.76043854871304,12.786480894781882,80.18788910119389,11.979903568283644
1679940218.070833,152.47479913135538,-4.328800563835275,-58.757686832146774,12.786480894552751,80.1878891010965,11.979893390807284
1679940218.403964,152.47479525857514,-4.328803207010727,-58.757123008880484,12.786480894415535,80.18788910100082,11.979870594876754
1679940218.737288,152.47479722787935,-4.328804589152819,-58.762839506100285,12.786480894247736,80.18788910090028,11.97985074127149
1679940219.070647,155.56073958029194,-4.527816601459271,-61.370067495093785,12.786480894138387,80.18788910092094,11.979824158712903
1679940219.403872,158.5810763131237,-4.573522149167315,-62.083821439043554,12.786480893996844,80.18788910071991,11.979812482643542
1679940219.737098,158.5810743451188,-4.573523181331379,-62.079186905303764,12.78648089421158,80.18788910068238,11.979829125623132
1679940220.070466,158.5810747134418,-4.5735222453705795,-62.065283922363754,12.786480894453055,80.1878891006448,11.979840425248726
1679940220.403714,161.66498094183837,-4.56991843247793,-61.91344906598884,12.786480894673124,80.18788910064055,11.979856704312919
1679940220.736966,164.74702331185912,-4.549923254822677,-61.23948926981634,12.786480894443756,80.18788910077207,11.979853520251261
1679940221.07029,164.74701723466686,-4.5499192121379215,-61.23261121049977,12.786480894524914,80.18788910075709,11.979825683869922
1679940221.403534,167.81426598077516,-4.466599315476812,-59.5445996778264,12.786480894550628,80.18788910086883,11.979852189957128
1679940221.73678,167.81426466929662,-4.466600799380137,-59.543149800459766,12.786480894659752,80.18788910093171,11.979877990442542
1679940222.070166,167.81426389651688,-4.466600137226141,-59.54848358358288,12.786480894811692,80.18788910099109,11.979901094880214
1679940222.403404,167.81426277134446,-4.466599750139546,-59.55565966587711,12.786480894980908,80.18788910104803,11.979922758155713
1679940222.736708,167.81426342561107,-4.466599201726114,-59.56151542710449,12.786480895137073,80.1878891011065,11.97994554277528
1679940223.069935,167.81426144212793,-4.466599673970992,-59.55570484112007,12.78648089529111,80.18788910116338,11.979968552609249
1679940223.403233,167.81425917431378,-4.466596363735914,-59.55358850626019,12.786480895515794,80.18788910120462,11.979983388591753
1679940223.736574,167.81426040549746,-4.466599865095296,-59.54701241360799,12.786480895581896,80.18788910126935,11.980010867982113
1679940224.069816,167.81425940293948,-4.466604154468159,-59.539187334996804,12.78648089563121,80.1878891013345,11.980038763662263
1679940224.403145,167.81425198797828,-4.466602429548076,-59.530141752615265,12.786480895887443,80.18788910135795,11.980045689397988
1679940224.736316,167.81424342596225,-4.466602623389115,-59.51863097292021,12.786480896123487,80.1878891013938,11.98005837381774
1679940225.06966,167.8142429287466,-4.46659957370317,-59.516919353423575,12.78648089631394,80.18788910144629,11.980077908358538
1679940225.402989,167.81424302143193,-4.46659522774994,-59.53162124105298,12.786480896571776,80.18788910147497,11.980083797807858
1679940225.736253,167.81424373407452,-4.466594235478254,-59.53854025464107,12.786480896716917,80.1878891015357,11.980107391322262
1679940226.069597,167.81424641047226,-4.466599493051139,-59.53632576961226,12.786480896724076,80.18788910160085,11.980135804614207
1679940226.402844,167.8142459560952,-4.4666013071672435,-59.53886509140672,12.786480896822995,80.18788910166492,11.980162069274202
1679940226.736076,167.8142355964725,-4.466599061142548,-59.52787049955365,12.786480897061958,80.18788910169907,11.980174124305893
1679940227.069456,167.8142384190135,-4.4665989685907075,-59.52358135719893,12.786480897199375,80.18788910175925,11.98019829356503
1679940227.402686,167.81423760200525,-4.466602770430131,-59.52651848019442,12.786480897247674,80.18788910182501,11.98022619303268
1679940227.735967,167.81423710855182,-4.466600916694471,-59.53501783289127,12.786480897440992,80.18788910187847,11.980245347599858
1679940228.069295,167.81424146461364,-4.466596850437026,-59.538456032386506,12.786480897635528,80.18788910193035,11.980264401856324
1679940228.40257,167.8142391656128,-4.466599929634332,-59.53227027047164,12.786480897726886,80.18788910199406,11.980291009317062
1679940228.735871,167.81422864592014,-4.466600118527963,-59.521558210224285,12.786480897980866,80.18788910201944,11.98029881172966
1679940229.069121,167.81421988575102,-4.4665975428056415,-59.51484620517766,12.786480898218892,80.18788910199935,11.980286170292853
1679940229.402428,167.8142149349061,-4.466600450648099,-59.510335307466114,12.786480898302186,80.18788910206388,11.98031307746833
1679940229.735643,167.8142160635395,-4.466604479786387,-59.50522911771137,12.786480898391828,80.18788910212808,11.980339743113534
1679940230.069018,167.8142134808066,-4.466600811847029,-59.50422725669964,12.78648089864718,80.18788910215603,11.98034686568319
1679940230.402168,167.81420785699382,-4.466599865473439,-59.501494478647956,12.786480898877313,80.18788910219759,11.980360629217703
1679940230.735515,167.8142129536115,-4.466599385403976,-59.498985087486716,12.78648089901936,80.1878891022581,11.980384458452308
1679940231.068814,167.81421444097163,-4.4665954062656805,-59.49665070681605,12.786480899206483,80.18788910231187,11.98040434170698
1679940231.40207,167.81421434209471,-4.466596540723017,-59.50276308984875,12.786480899323056,80.18788910237588,11.98042970675899
1679940231.735407,167.81421301331,-4.466603216297296,-59.50515858294528,12.786480899229693,80.18788910243188,11.98045643437616
1679940232.06867,170.90492711320195,-4.514609866615685,-61.00392455288726,12.786480899302251,80.1878891023573,11.980483415143745
1679940232.402052,170.90492459673038,-4.514606937780218,-60.99853421830907,12.786480899378773,80.18788910232871,11.980455547193486
1679940232.73529,170.90492094061145,-4.51460746306431,-60.99129715582715,12.786480899555533,80.18788910228234,11.980434327937672
1679940233.068552,170.90491846923712,-4.514610063489954,-60.98972606667532,12.786480899783104,80.18788910223036,11.98042046222446
1679940233.401818,170.90491777640963,-4.514614774141426,-60.98015664610717,12.786480900036072,80.18788910217495,11.980414248963417
1679940233.735259,170.9049117538675,-4.514611777302765,-60.97296656129072,12.78648089996196,80.18788910217573,11.980386127914274
1679940234.068378,170.90490009015335,-4.514607392126323,-60.962250127085994,12.78648089979125,80.18788910219956,11.980363888533336
1679940234.40165,170.90489776680732,-4.514597025974544,-60.953819385786566,12.78648089972799,80.18788910219705,11.980335448574314
1679940234.735008,170.90489929578212,-4.514589266579724,-60.95108214545874,12.786480899764651,80.18788910217368,11.98030655105595
1679940235.068309,170.90490245392,-4.514587826764898,-60.953537306247874,12.786480899937162,80.1878891021284,11.980284882981666
1679940235.401578,170.90490432284008,-4.514587021857485,-60.97186238361519,12.786480900133952,80.18788910208335,11.980265907064565
1679940235.734904,170.90490842435176,-4.514589971899489,-60.986221971618825,12.786480900385119,80.18788910203402,11.980258341538041
1679940236.068089,170.90490676492263,-4.514596106655706,-60.99282124261026,12.786480900645007,80.18788910198575,11.980260309858048
1679940236.401454,170.90490368214495,-4.514602260169286,-60.99047408905954,12.786480900903642,80.18788910193574,11.980263440327905
1679940236.734809,173.93349489363902,-4.529007946052467,-61.21932694261577,12.786480901107396,80.18788910202403,11.980247380017465
1679940237.067956,173.93348778305892,-4.5290114721286665,-61.1923146162048,12.786480900874661,80.18788910207556,11.980260176161957
1679940237.40141,173.93348497170155,-4.52900935284459,-61.16860814223505,12.786480900774144,80.18788910210023,11.980287143544475
1679940237.734561,177.0056230610136,-4.446399480927643,-59.416934886840416,12.786480900774803,80.18788910207577,11.980257973886676
1679940238.067832,177.00562410077583,-4.446399953054014,-59.42349080492134,12.786480900590822,80.18788910201262,11.980238056338402
1679940238.401116,180.0775725654385,-4.452085493644612,-59.583140125792944,12.786480900406758,80.18788910204022,11.980217215239751
1679940238.734528,180.07757037184047,-4.452087635127151,-59.59028550856414,12.786480900547636,80.1878891021035,11.980241045434113
1679940239.067619,183.1344678140791,-4.434252362702229,-59.16337858697858,12.78648090072026,80.1878891019597,11.980256841283174
1679940239.400921,186.19864253624374,-4.409814341697012,-58.53544438075499,12.786480900525664,80.18788910214263,11.980257017859149
1679940239.734282,189.249798015197,-4.372424240175007,-57.73369816749902,12.786480900608746,80.18788910197756,11.980235751781363
1679940240.067644,192.33616450610626,-4.317389364926909,-56.152189071360375,12.786480900610584,80.18788910209922,11.980209608546737
1679940240.400849,192.33616221986313,-4.31738853807792,-56.14817170922617,12.786480900354936,80.18788910211603,11.98021700880825
1679940240.734717,192.33616406488073,-4.317386965275101,-56.15395935191509,12.786480900093673,80.18788910215953,11.980216501753782
1679940241.067355,192.33616278464956,-4.3173902819695025,-56.15899718804498,12.786480899875492,80.18788910224322,11.980202616896959
1679940241.40071,192.3361626160618,-4.317391389343804,-56.164121577934544,12.786480899622951,80.18788910230349,11.980196738861665
1679940241.733973,192.3361610883772,-4.317390277677971,-56.16214852070698,12.786480899361102,80.18788910233796,11.98019893345889
1679940242.067215,195.39464126346246,-4.303758737299847,-55.822193285559536,12.78648089909782,80.18788910236644,11.980198810268597
1679940242.400637,195.39463984263517,-4.30375793438771,-55.818048488397544,12.786480899324266,80.18788910234376,11.980183832963476
1679940242.733792,198.45055293007584,-4.289051553974651,-55.463397812915495,12.786480899562688,80.18788910228893,11.980172571522042
1679940243.067072,198.45055082427336,-4.289051599779471,-55.45979955394665,12.786480899399537,80.1878891023114,11.980195512614216
1679940243.400303,198.45054622252445,-4.289050619273384,-55.45288271456955,12.786480899275562,80.18788910231297,11.98022139522649
1679940243.73365,201.48272979087417,-4.209074653427977,-54.1850654251295,12.786480899279374,80.18788910224687,11.980193001026626
1679940244.0671,204.5290815055647,-4.220866137575216,-54.421003934352775,12.786480899171716,80.18788910228058,11.980166492916846
1679940244.40025,204.5290811468878,-4.220867308740216,-54.42009008706463,12.786480899245689,80.18788910231879,11.980194310309162
1679940244.73351,204.52907958809283,-4.220869529246162,-54.415881399997026,12.78648089930361,80.18788910236526,11.980222443783617
1679940245.066886,204.52907757280286,-4.220866347218047,-54.41890922366524,12.786480899534114,80.18788910229111,11.980234399515881
1679940245.400443,204.52907492593863,-4.220866886733627,-54.40699251893546,12.786480899655023,80.18788910230188,11.98026043294528
1679940245.733402,207.60013361990042,-4.21377928552898,-54.19046674895632,12.786480899763367,80.18788910224285,11.980286380460322
1679940246.066795,207.600134889402,-4.213776064031973,-54.20580114479308,12.786480899548412,80.1878891022633,11.98026942331811
1679940246.399928,207.60013614228453,-4.213777429591966,-54.21679070205928,12.786480899425822,80.18788910222143,11.980243862649573
1679940246.733274,210.68899330244392,-4.212024641432308,-54.12844969614743,12.786480899275071,80.18788910225507,11.980220063012846
1679940247.066574,210.6889923850023,-4.212023762257367,-54.12089868069772,12.786480899496285,80.18788910223206,11.980235963816817
1679940247.399765,210.68898588204448,-4.212022625250371,-54.11106266241353,12.786480899746888,80.18788910215042,11.98023925091387
1679940247.733167,213.78794440251784,-4.306987898243062,-56.38622892178837,12.786480899919473,80.18788910218677,11.980261111074832
1679940248.066426,213.78793621695488,-4.306991739441764,-56.35842860928002,12.786480900178072,80.18788910214438,11.980265393291798
1679940248.399736,216.88399901978195,-4.232120816835805,-54.30375421960653,12.786480900329682,80.18788910220547,11.980288472878849
1679940248.73298,216.88400111234208,-4.232116940421349,-54.31799565307204,12.786480900547385,80.18788910216693,11.980304609660669
1679940249.06631,216.88400670206173,-4.232112736071309,-54.325544542665426,12.786480900748957,80.1878891021392,11.980323364047806
1679940249.399493,216.88400496761267,-4.232113861123905,-54.328300158041145,12.786480900890627,80.18788910215181,11.98034807198186
1679940249.732817,216.8839995349661,-4.232117974777008,-54.32396970607598,12.786480900805564,80.1878891022612,11.980373139889224
1679940250.066143,220.02174477744464,-4.099214851097297,-51.23585031585088,12.786480901012794,80.18788910236302,11.980387636910013
1679940250.399562,220.02174423709138,-4.09921495305083,-51.230544955624,12.786480901171812,80.18788910237052,11.980411043033468
1679940250.732694,220.02175036747744,-4.099216972366695,-51.227904556714904,12.78648090127602,80.18788910233347,11.980437668575
1679940251.065903,220.02175550836495,-4.0992128608954435,-51.229993375980676,12.786480901469396,80.18788910237555,11.980457148924945
1679940251.399248,220.0217512280729,-4.099217372976135,-51.23621641702286,12.786480901479546,80.18788910228024,11.980484526838714
1679940251.732541,223.1120585217056,-4.224324345711319,-53.60068957315557,12.786480901496748,80.18788910211026,11.980507193974999
1679940252.065862,226.19007884810108,-4.164668441330317,-52.08246376333915,12.786480901422884,80.18788910233076,11.980521963032164
1679940252.399029,229.2573679956711,-4.095368234866801,-50.56885466055547,12.786480901508329,80.18788910245317,11.980497632501633
1679940252.732418,229.25736721100827,-4.0953717318300376,-50.55529251364865,12.786480901263596,80.18788910247217,11.980486646130435
1679940253.065665,229.25736729719424,-4.095369464734201,-50.54715727092529,12.786480901014297,80.18788910239279,11.98049145161468
1679940253.398999,229.25736850763383,-4.095366928189045,-50.54642864455547,12.786480900762133,80.18788910231842,11.980495264053113
1679940253.732199,229.25737024134582,-4.095361727419137,-50.559212690514144,12.786480900531181,80.18788910221397,11.980504011884385
1679940254.065458,229.25737474623023,-4.095356532142594,-50.577402762795465,12.786480900298479,80.18788910210954,11.980512175178522
1679940254.398818,229.25737326271587,-4.095359572435941,-50.584308929763125,12.78648090005652,80.18788910212722,11.980500438096952
1679940254.732062,229.2573725510728,-4.095363239883198,-50.58422541704521,12.786480899819653,80.18788910215291,11.980487651601557
1679940255.065393,229.25736741618292,-4.0953707986895145,-50.569197670201646,12.786480899646596,80.18788910224038,11.980467621317258
1679940255.398748,229.25736539513505,-4.095374397791041,-50.55559914799687,12.786480899404483,80.18788910226355,11.980456038035145
1679940255.731946,229.25736030854264,-4.095373768744775,-50.546970143855276,12.78648089915348,80.18788910218727,11.980460315453328
1679940256.065211,232.32327737815066,-4.130686873653648,-51.39650715618682,12.786480899043294,80.1878891019731,11.980447331267305
1679940256.398685,232.3232716256899,-4.130678819436893,-51.393667213646,12.786480899259258,80.18788910211885,11.980441272765477
1679940256.731862,232.32327787115247,-4.130674678555971,-51.39635401748002,12.786480899453633,80.18788910218959,11.980459619242986
1679940257.065053,232.32328231685963,-4.130673670924201,-51.398772515173654,12.786480899606392,80.18788910222158,11.980483290993694
1679940257.3984,232.32328174890714,-4.130678136174495,-51.41173918014749,12.786480899643921,80.18788910217141,11.980511770251223
1679940257.731648,232.32327466223362,-4.130688172341416,-51.405620218523474,12.786480899465603,80.18788910202694,11.980526696090177
1679940258.064924,232.32328561167424,-4.13070243437205,-51.366238178231676,12.78648089950675,80.18788910197938,11.980555166709891
1679940258.398191,235.4421717469821,-4.140254279272425,-52.09928907863869,12.786480899553824,80.18788910205389,11.980582833130493
1679940258.731507,235.4421718606442,-4.140263017008822,-52.072212543499084,12.786480899684124,80.18788910209338,11.980557699360606
1679940259.064835,235.44218263838403,-4.14026512171744,-52.039687778064696,12.786480899682983,80.1878891020533,11.980528733100448
1679940259.398003,235.44218790235465,-4.140260155473857,-52.02608900137129,12.786480899551334,80.18788910194453,11.980506231332232
1679940259.731343,235.4421952435105,-4.140273601714306,-52.01548890750111,12.786480899703756,80.1878891020152,11.980483542224595
1679940260.064661,238.5416463325055,-4.169882407456816,-53.23485748993217,12.786480899801319,80.18788910211103,11.980458378753772
