Timestamps,Roll_N,Pitch_E,Yaw_U,Latitude,Longitude,Altitude
1679940008.058139,-1.84,8.94,-74.95,12.791754723,80.188400269,13.53
1679940008.391646,-1.8400028858304853,8.940003877798594,-74.97282343215596,12.791754723080473,80.18840026876413,13.53001108510793
1679940008.724268,-1.8400093127555723,8.9400106698509,-74.99404174073969,12.791754723113797,80.18840026852715,13.530024586255207
1679940009.058017,-1.84000360081951,8.940017550755563,-74.99924945587432,12.791754723090486,80.18840026829866,13.53003994490598
1679940009.391413,-1.839995333488113,8.940015039608172,-74.99921485429883,12.791754723338455,80.18840026823602,13.530032251338863
1679940009.724752,-1.8399971023436048,8.940014336445682,-74.99328442641469,12.791754723483745,80.1884002680188,13.530038838164435
1679940010.057869,-1.8400000786603306,8.940015065143193,-74.98997036165335,12.79175472359261,80.18840026778777,13.530047990169404
1679940010.391377,-1.8399990868873322,8.940016782453466,-74.99276555965486,12.791754723678398,80.18840026755205,13.530058616670372
1679940010.724666,-1.8399982334708667,8.94001932785425,-74.99596676184797,12.791754723743317,80.18840026731407,13.530070393102035
1679940011.062133,-1.839996712939348,8.940020857046644,-74.99692295333975,12.79175472384543,80.18840026708158,13.530080048477062
1679940011.390732,-1.839997049842436,8.940021183034695,-74.99955063278303,12.7917547239739,80.18840026685733,13.530087995246175
1679940011.725325,-1.839996174223401,8.940022710797841,-75.0041051345185,12.791754724090296,80.18840026662903,13.530096816772634
1679940012.057898,-1.8399902505938166,8.940024327298596,-75.00937974725092,12.791754724224235,80.18840026640729,13.530104481804738
1679940012.390703,-1.8399889780433958,8.940023695007413,-75.00960327454351,12.791754724393558,80.18840026620474,13.530109325679277
1679940012.724078,-4.925940491640817,8.908257121519995,-73.9865808422565,12.791754724147763,80.18840026629866,13.530105506574074
1679940013.057234,-4.925939074246626,8.908255116642724,-73.99123561575833,12.791754724028525,80.18840026645744,13.530125172447068
1679940013.3913,-4.925937016647017,8.908254340862152,-73.99395152057895,12.791754723895574,80.1884002666564,13.53013839953541
1679940013.723968,-4.925933247873496,8.908254635704424,-73.99544258396188,12.791754723762292,80.18840026685653,13.530151374484616
1679940014.058526,-4.92593408674545,8.908254744928696,-73.9922805377041,12.791754723626667,80.18840026707831,13.530158656560776
1679940014.390314,-4.92593723354205,8.908255464064927,-73.9863019683314,12.791754723493533,80.18840026731031,13.530161210326165
1679940014.723577,-4.9259365062211415,8.908256973260603,-73.98169719201478,12.791754723360636,80.18840026754286,13.530163286531884
1679940015.056841,-4.925935865779556,8.908257104816078,-73.98389697868123,12.791754723225084,80.18840026776036,13.530171972442739
1679940015.390129,-4.9259275904288655,8.908258426093493,-73.98842710712407,12.791754723097641,80.18840026794258,13.530188335862562
1679940015.723307,-7.957229290389046,8.918610381871117,-74.1966051974115,12.79175472316646,80.18840026820307,13.530188626185849
1679940016.056592,-7.957220459887655,8.918606347090597,-74.21677091858061,12.791754723305665,80.18840026810577,13.530166062735434
1679940016.38991,-7.957218191336167,8.918604322139403,-74.21841902692691,12.791754723461036,80.18840026791445,13.53015461678228
1679940016.723294,-7.957222674071646,8.918608675847757,-74.21287152567653,12.791754723545417,80.18840026768748,13.530167407425932
1679940017.056405,-11.047255168859403,8.931439847896216,-74.70265051128483,12.791754723559038,80.18840026743271,13.530157892568404
1679940017.389872,-11.047256199075706,8.931439667302403,-74.69091459767242,12.791754723463649,80.18840026767053,13.530148953507107
1679940017.723069,-14.077567678536383,8.886158914957615,-73.92672820166267,12.791754723721048,80.18840026772604,13.530152237776408
1679940018.056461,-14.077558660938704,8.886161447899761,-73.93845338570935,12.79175472385985,80.18840026749629,13.53015230081119
1679940018.38974,-14.077550495073126,8.886157580033899,-73.956851827498,12.791754723929024,80.18840026742885,13.530124992888757
1679940018.723086,-14.07754548254684,8.886156975676169,-73.97567738954271,12.79175472406735,80.18840026722806,13.530112802995067
1679940019.056276,-14.07754433763039,8.886157703857439,-73.9853988146795,12.791754724206394,80.18840026699847,13.530112866886508
1679940019.389544,-14.07754296125562,8.886157893844175,-73.98318173906857,12.791754724344283,80.18840026676855,13.530111435373456
1679940019.722875,-14.077544585731921,8.88615602658787,-73.97070792995233,12.791754724480993,80.18840026653943,13.53010821312763
1679940020.056069,-14.077546590096757,8.886156336651807,-73.95983104483021,12.791754724610012,80.18840026630694,13.530112343619264
1679940020.38947,-14.077545244265854,8.886157333842794,-73.95583313781776,12.791754724742658,80.18840026607491,13.530115150431996
1679940020.722679,-14.077546032455915,8.886158943582426,-73.96124159208584,12.79175472487387,80.18840026584554,13.53012035241185
1679940021.055922,-14.077542284555163,8.886162364415892,-73.96457383465969,12.791754724997055,80.18840026562088,13.530129144443537
1679940021.389236,-14.077534523487593,8.886161824809959,-73.97313307247686,12.791754725129916,80.18840026543128,13.530114377801794
1679940021.722539,-14.077529610188503,8.886162186170196,-73.98076145777547,12.791754725270874,80.18840026521514,13.530106374767762
1679940022.055761,-14.077528463346981,8.886162077679694,-73.98704108847872,12.791754725410675,80.18840026498648,13.530104803696968
1679940022.389076,-14.077527973494819,8.886162844992661,-73.99082951911332,12.791754725545774,80.18840026475542,13.530107073908933
1679940022.72251,-14.077526492214226,8.886162439128542,-73.99572742958054,12.791754725687262,80.1884002645313,13.530102517478404
1679940023.055675,-14.077526412411332,8.886162068169808,-73.99230224772145,12.791754725824463,80.18840026430065,13.530101807882987
1679940023.388861,-14.077524320813508,8.886164067124893,-73.98826835413182,12.791754725941022,80.188400264077,13.530111909145642
1679940023.722355,-17.126486034321214,8.873057247526699,-73.71684491106247,12.79175472574111,80.18840026390126,13.530109740204164
1679940024.055595,-17.126484240514284,8.873057599909108,-73.71776837233573,12.791754725601068,80.18840026413012,13.530109124201163
1679940024.388917,-17.126481949237792,8.87305816383122,-73.7213772232875,12.791754725459514,80.18840026435679,13.53010646542935
1679940024.722147,-17.126481734465493,8.873055208651033,-73.72972545652405,12.791754725343901,80.18840026456478,13.530120044967555
1679940025.055401,-17.12647987147279,8.873056084811246,-73.73541452168803,12.79175472520472,80.1884002647937,13.530121804182938
1679940025.3887,-17.126479835035035,8.873055989232174,-73.7384177952057,12.791754725065866,80.18840026502302,13.53012325297165
1679940025.722232,-17.12647685729861,8.87305676152396,-73.73920082334764,12.791754724927456,80.18840026525264,13.530124649179825
1679940026.055287,-17.1264739945575,8.873055707798216,-73.74101928404895,12.791754724799597,80.18840026547426,13.530133535609036
1679940026.388558,-17.126472152631415,8.873056628461834,-73.73842949546027,12.791754724661327,80.18840026570427,13.53013406756566
1679940026.72176,-20.190541388097905,8.88748397911212,-74.11911502426449,12.791754724693915,80.1884002659578,13.53014340776677
1679940027.055083,-20.190541504124674,8.88748399297187,-74.11955212585535,12.791754724818006,80.18840026572667,13.530149717499478
1679940027.388492,-20.190539929867683,8.887483610867609,-74.12076354953533,12.791754724949586,80.1884002654951,13.530153451804747
1679940027.721751,-20.19053815520895,8.887483874239848,-74.1217588667099,12.791754725074584,80.18840026526388,13.530159495156589
1679940028.054976,-23.25177832976739,8.88185835531851,-74.00020176046311,12.791754724933025,80.18840026505781,13.530148906736674
1679940028.388658,-23.251775387905532,8.881858499063988,-74.00722582122557,12.791754724798292,80.18840026528768,13.530145325322671
1679940028.721577,-23.251772481526462,8.881858079677148,-74.01160624805267,12.79175472465977,80.1884002655175,13.53014460052576
1679940029.054874,-23.251770183282243,8.881857578192177,-74.01603542217374,12.791754724521855,80.18840026574752,13.530143381956382
1679940029.388117,-23.251768467512758,8.881858523797456,-74.01783241339822,12.791754724403654,80.18840026597101,13.53013347353401
1679940029.721497,-23.251766813813294,8.881858629818248,-74.01701580335006,12.79175472428122,80.18840026619802,13.53012528705108
1679940030.054692,-26.305219196953246,8.87986530050357,-73.98203048872516,12.791754724384376,80.18840026642141,13.530137095051684
1679940030.387883,-26.30521724678888,8.87986568390044,-73.98306271697523,12.7917547245066,80.18840026619743,13.530146249781279
1679940030.721276,-26.305213729505255,8.879865171635183,-73.98818544993249,12.791754724646575,80.18840026596847,13.530145865008917
1679940031.054558,-26.305213980015626,8.879867377939194,-73.99430935145323,12.79175472474616,80.18840026576684,13.53016190653651
1679940031.387801,-26.305216491215223,8.8798661204281,-73.99773895043666,12.791754724870014,80.18840026554169,13.530170428296746
1679940031.721017,-29.30238504534126,8.900088892562346,-74.28369041455602,12.791754724841036,80.18840026533441,13.5301519561425
1679940032.054485,-32.22184613540615,9.097740342958021,-75.73746986575577,12.79175472470182,80.18840026519264,13.530171550445983
1679940032.38765,-32.221839885238744,9.097739713914,-75.73823923643516,12.791754724667824,80.18840026493719,13.530180179988815
1679940032.720967,-32.22183977960609,9.09773816402509,-75.74550663527428,12.791754724557743,80.1884002646962,13.530185187157315
1679940033.054211,-32.2218416118477,9.097736124813673,-75.75091443994786,12.791754724427491,80.18840026446395,13.5301889881302
1679940033.387561,-32.22183998904066,9.097735853976518,-75.75207721195939,12.791754724279263,80.18840026424176,13.530191652712116
1679940033.720778,-32.22183599086291,9.097738514084124,-75.75460883833154,12.791754724070445,80.18840026407705,13.530189546856972
1679940034.054378,-32.22183455923394,9.097739502931855,-75.75626147013959,12.79175472390528,80.18840026386661,13.530190985996544
1679940034.387431,-32.2218284930559,9.097737354366366,-75.76620884774114,12.79175472393316,80.18840026361762,13.530201831302838
1679940034.720611,-32.22182785431344,9.097736275158493,-75.77770824946056,12.791754723796993,80.188400263388,13.530204911214748
1679940035.053957,-32.22182535780145,9.097733983773509,-75.78450834398198,12.791754723692609,80.1884002631443,13.530209861158568
1679940035.387233,-32.221819326259244,9.09773719256304,-75.78327314319897,12.791754723493943,80.1884002629668,13.530207995977003
1679940035.720518,-32.221818090542804,9.097739132441587,-75.77498934554076,12.791754723279508,80.18840026281153,13.530204679127449
1679940036.053777,-32.22182407296165,9.097740417299645,-75.76453489139118,12.791754723062654,80.1884002626598,13.530201357582202
1679940036.387094,-32.221826838434694,9.097740961973658,-75.76003499949783,12.791754722861734,80.18840026248469,13.530199805603486
1679940036.720307,-29.110114809210984,9.011471514045631,-78.2380898889069,12.791754722639334,80.18840026254448,13.53021431439909
1679940037.053667,-29.110104922179186,9.011475965527747,-78.25147932760636,12.79175472247435,80.1884002627112,13.530228358060342
1679940037.386923,-29.11010384796184,9.011477947227368,-78.26688479557454,12.791754722318053,80.1884002628873,13.530242265094676
1679940037.720269,-29.110102732076744,9.011475960582075,-78.27490574109464,12.79175472226383,80.18840026312157,13.530255495010744
1679940038.053547,-29.11009667412967,9.01147172005041,-78.27487619196027,12.79175472232747,80.18840026336612,13.530265664210079
1679940038.386796,-29.110096743895014,9.011473717350102,-78.27150057243084,12.791754722133414,80.18840026350705,13.530278426164063
1679940038.719963,-29.11009560384769,9.0114738985293,-78.26966389128621,12.79175472200699,80.18840026370746,13.530292169904437
1679940039.053274,-29.110093975178234,9.0114717067781,-78.26628235428866,12.791754721964553,80.18840026394503,13.530305232790608
1679940039.386645,-29.11008842779942,9.011469580444118,-78.27286669979043,12.79175472193776,80.18840026418641,13.530317973733
1679940039.719903,-29.110085846490723,9.01147175761733,-78.27804462279138,12.791754721787115,80.18840026436949,13.530331578070282
1679940040.053337,-29.110079785157463,9.011470371212665,-78.28906408341689,12.791754721730664,80.1884002646035,13.530344750761671
1679940040.386625,-29.110074873321704,9.011473061406125,-78.29604904854695,12.791754721580668,80.18840026478861,13.530358116293343
1679940040.719739,-29.11007363665208,9.011473256640203,-78.29803669134769,12.791754721465507,80.1884002649977,13.530371544859799
1679940041.053042,-29.11007287751557,9.011472672530443,-78.30079434483291,12.791754721361272,80.18840026521282,13.530384939184238
1679940041.386498,-29.11007068346589,9.011473381893053,-78.30379297784198,12.791754721224777,80.18840026540889,13.530398235871024
1679940041.719645,-29.11007013321221,9.011473839501217,-78.30299841245858,12.791754721100729,80.18840026561327,13.530411546149084
1679940042.052858,-29.11006764339066,9.011473864101285,-78.3038768437222,12.791754721000647,80.18840026583077,13.530424876221229
1679940042.386143,-29.110067855328772,9.011474457198496,-78.30373199945676,12.791754720878975,80.1884002660366,13.53043819417736
1679940042.719484,-29.110068443784105,9.011474506448284,-78.30594184204756,12.791754720768704,80.1884002662489,13.53045153011116
1679940043.052789,-29.110066712427074,9.01146820371418,-78.31207457273186,12.791754720729381,80.18840026648847,13.530464277823413
1679940043.385955,-29.11006317019268,9.011468949844321,-78.31654659278055,12.791754720616874,80.18840026670009,13.530477510618757
1679940043.71935,-29.11006189080053,9.011469298143185,-78.31844367859293,12.791754720508008,80.18840026691396,13.530490690028456
1679940044.052677,-29.110057795390503,9.01146849595594,-78.32199679732342,12.79175472044451,80.1884002671471,13.530503645885588
1679940044.385878,-29.11005300646065,9.011467850097167,-78.32394513743438,12.791754720376138,80.18840026737873,13.530516618915277
1679940044.719114,-29.110053167999535,9.011469964140785,-78.32410180046357,12.791754720190418,80.18840026753519,13.530528754412012
1679940045.052444,-29.110051855203118,9.011472857148815,-78.32632156691943,12.791754720008093,80.18840026769513,13.530540983552717
1679940045.385746,-29.11005029109228,9.01147314035877,-78.32314320337332,12.791754719895504,80.18840026790764,13.530554037697955
1679940045.718988,-29.11005210679331,9.011473713753087,-78.32139317547981,12.791754719733783,80.18840026808662,13.530566698536106
1679940046.05224,-29.11005192749662,9.01147550507353,-78.3225372358194,12.791754719575337,80.1884002682681,13.530579445185499
1679940046.385617,-29.110046684614474,9.011474774555554,-78.32368635357757,12.791754719530378,80.1884002685067,13.530592179512679
1679940046.718892,-29.110047961598646,9.011474884076932,-78.32318694334253,12.791754719387303,80.1884002687001,13.530605083800582
1679940047.052155,-29.110046722479115,9.011475177686012,-78.32696270014911,12.791754719259803,80.18840026890376,13.530618125623608
1679940047.385446,-29.11004120937502,9.011474192755092,-78.33540087015056,12.791754719268086,80.18840026915062,13.530629908670482
1679940047.71889,-32.18174923379368,8.938080351941267,-76.73068471704879,12.791754719014193,80.1884002691303,13.530637919434136
1679940048.052045,-32.181743425829865,8.938081661171877,-76.74730436643551,12.791754718882173,80.18840026892232,13.53062631104368
1679940048.385316,-32.18173864985079,8.938083016825207,-76.7509948276346,12.791754718750191,80.18840026872385,13.530612879597946
1679940048.718659,-32.181738245749656,8.938081491441118,-76.74987744892647,12.791754718616204,80.1884002685076,13.530603549045974
1679940049.051869,-32.18174103511535,8.938083357828388,-76.74645700474923,12.791754718497302,80.18840026836538,13.530582418068368
1679940049.385286,-32.18174265651041,8.93808294154269,-76.73792527920665,12.791754718364468,80.18840026817804,13.530567309688763
1679940049.718488,-32.18173970735014,8.93808167378705,-76.73835416033367,12.7917547182387,80.18840026794066,13.53056764001262
1679940050.051783,-35.28132197820904,8.839041599216431,-74.40244892660058,12.791754718457689,80.1884002678796,13.530582711270933
1679940050.385038,-35.28131799071653,8.83904451928848,-74.40796188380615,12.791754718505297,80.18840026800797,13.530557491071324
1679940050.71828,-35.28131563208243,8.839045138945774,-74.41647340376237,12.791754718491914,80.18840026818846,13.530535769952655
1679940051.051741,-38.35421628633914,8.820837223974456,-73.9147648050698,12.791754718578295,80.18840026835356,13.530556871177735
1679940051.384825,-41.407155798720694,8.835827772236609,-74.25691386247414,12.791754718575728,80.1884002682459,13.53053001591279
1679940051.71818,-44.486461880191534,8.855712456063573,-74.8852740729755,12.791754718460936,80.1884002682426,13.530556408974206
1679940052.051443,-47.55907362689692,8.843463846718054,-74.54692951511946,12.791754718554348,80.18840026806681,13.530536739262176
1679940052.384858,-50.608237107802886,8.696868799216986,-72.529222657599,12.791754718389665,80.18840026821717,13.53052062707328
1679940052.718041,-53.64495649855555,8.726674369227494,-73.09618059574004,12.791754718178343,80.18840026807533,13.53051201081242
1679940053.051365,-53.6449549971039,8.72667566047783,-73.10338219491592,12.791754717970298,80.18840026813852,13.530495242516848
1679940053.384565,-53.64495295516345,8.726674736942252,-73.1088896438087,12.791754717752832,80.18840026826234,13.530485319698094
1679940053.717886,-53.64494987324949,8.726677769751424,-73.1043007046249,12.791754717567583,80.18840026828212,13.530464502986197
1679940054.051131,-53.644950797874934,8.72667681962171,-73.10104881486825,12.791754717354724,80.18840026837209,13.530450080259588
1679940054.38442,-53.64495044702604,8.726677363487655,-73.09737404750568,12.791754717150098,80.18840026843176,13.530432659593277
1679940054.717788,-53.644949598119524,8.72667755937437,-73.10021362963893,12.791754716936918,80.18840026851541,13.530417850928346
1679940055.051098,-53.64494545728585,8.726675307204875,-73.1099030161015,12.791754716738026,80.18840026869348,13.530418017153135
1679940055.384307,-56.66514478088215,8.660773319404562,-72.12922936643552,12.791754716960234,80.18840026860889,13.530431028366978
1679940055.717583,-56.665143816568126,8.660774735100883,-72.1371397855845,12.791754717218824,80.18840026858938,13.530425103406632
1679940056.050941,-59.70725617843334,8.615350456057639,-71.2899864603535,12.791754717000435,80.18840026869843,13.530436680228146
1679940056.384162,-59.70725592998153,8.61535280170998,-71.28570243252328,12.79175471683262,80.18840026867751,13.530459223523625
1679940056.717391,-62.76113991999584,8.604501154052137,-71.04753981251379,12.79175471698893,80.18840026867649,13.53043558202133
1679940057.050769,-62.76113921052781,8.60450061946673,-71.05186396997152,12.791754717046311,80.18840026864143,13.530407239783521
1679940057.384022,-62.761136126272895,8.604502297756493,-71.05306898719478,12.791754717150557,80.1884002686513,13.530380336633732
1679940057.717363,-65.82892794215748,8.583640500437697,-70.51937462946384,12.791754717072793,80.18840026865985,13.530408321777536
1679940058.050645,-65.82892773532093,8.583640810257023,-70.52700076438701,12.791754717122553,80.18840026866573,13.530437082327719
1679940058.384081,-65.828924699684,8.583639292664003,-70.53158088012474,12.791754717249768,80.18840026874979,13.530461095475054
1679940058.717289,-65.82891749557643,8.58363978097921,-70.53004508190284,12.791754717354307,80.18840026881055,13.5304871839199
1679940059.050588,-65.82891787510012,8.583641806595935,-70.52820723151629,12.791754717348002,80.18840026876799,13.530516099177765
1679940059.383725,-65.82891943004837,8.583642714826107,-70.5313166664626,12.79175471736402,80.18840026874473,13.53054522647109
1679940059.717076,-65.82891343327479,8.583640264738905,-70.53627805404614,12.791754717547308,80.18840026889403,13.53055879358398
1679940060.050394,-68.84016613208738,8.548919765573162,-70.03072332246023,12.791754717554927,80.18840026893736,13.530529894538917
1679940060.383746,-68.84016002577111,8.548920082701331,-70.03809025783573,12.791754717361167,80.18840026889613,13.530510440804486
1679940060.716864,-68.84015611938418,8.5489194873878,-70.03979070478408,12.79175471717878,80.18840026886966,13.530489402356437
1679940061.050384,-68.84015893133972,8.548920572360597,-70.03795744542964,12.791754717098923,80.18840026893974,13.530462530981794
1679940061.383544,-68.84016099912019,8.548922182040199,-70.03910563886205,12.791754717005462,80.18840026899973,13.530435910477221
1679940061.716782,-68.8401561662287,8.54892236471164,-70.03960752054577,12.791754716842533,80.18840026899595,13.530412826484186
1679940062.050117,-68.8401555964827,8.548922728878349,-70.0379499999564,12.791754716700213,80.1884002690135,13.530388200316224
1679940062.383349,-68.8401540257043,8.54892033252263,-70.04663912953963,12.791754716517818,80.18840026898552,13.530367186821906
1679940062.716574,-68.84014953619923,8.548920025707295,-70.0559483741092,12.791754716341115,80.18840026896245,13.530345517427117
1679940063.049914,-71.80085209480245,8.354609272477965,-68.41586189783038,12.791754716238584,80.18840026875306,13.530360090970822
1679940063.383358,-71.8008483638828,8.354610543246338,-68.41708040564714,12.791754716484423,80.18840026870096,13.530350800522521
1679940063.71647,-74.85719826496148,8.35452073690083,-68.4261223417916,12.79175471622858,80.18840026865128,13.530356071295712
1679940064.049805,-74.85719893229886,8.354521013434761,-68.42497608723896,12.791754715978303,80.18840026871432,13.530362739288387
1679940064.383197,-74.85719571323813,8.354521390669476,-68.42205864452075,12.791754715748562,80.18840026874108,13.530377006347553
1679940064.716468,-74.85719588020105,8.354522652610369,-68.41807873929564,12.791754715498474,80.18840026880571,13.53038358261578
1679940065.049655,-74.85719847378846,8.354523696129535,-68.41929715413046,12.791754715246487,80.18840026888154,13.53038719943776
1679940065.382851,-74.85719579920386,8.354520928353288,-68.4364384362617,12.791754715060542,80.18840026886446,13.530407968316364
1679940065.716222,-74.85718594047528,8.354521250191931,-68.45690178452419,12.7917547148432,80.18840026887025,13.530424686002467
1679940066.049579,-73.65143811598712,7.231478442766747,-69.28102381482852,12.791754714841403,80.18840026907515,13.53040563133368
1679940066.382788,-73.65143287393724,7.231479343225554,-69.27673698392628,12.791754714785782,80.18840026892732,13.530381915176394
1679940066.716,-73.65143159401397,7.231480214491142,-69.27052472056546,12.79175471483227,80.1884002687699,13.530358690872061
1679940067.049558,-73.65143560391388,7.2314818659024755,-69.26560274017609,12.791754714934235,80.18840026861791,13.530337279168755
1679940067.382647,-73.65143942521341,7.2314811263991725,-69.25884188298863,12.791754714972182,80.1884002684604,13.530313872529934
1679940067.715911,-73.65143592319757,7.231482763330058,-69.2515401567422,12.791754715012,80.18840026830287,13.530290503972164
1679940068.049179,-73.65143269085671,7.231483414055439,-69.25826329381874,12.791754715036134,80.18840026814577,13.530266842263382
1679940068.382568,-73.65142403069102,7.231485094399933,-69.26814868319931,12.791754715003202,80.18840026799282,13.530242987714315
1679940068.715664,-76.70046061660773,7.182819052133386,-68.3154171762285,12.7917547148967,80.18840026788685,13.530267210926045
1679940069.049258,-76.70046442445467,7.182818912168425,-68.32685280417067,12.79175471500923,80.18840026805339,13.530286599860826
1679940069.382542,-76.70046091530544,7.18281802187497,-68.33212683116908,12.791754715193733,80.18840026821782,13.530297675283348
1679940069.715523,-76.7004615700875,7.182819552098511,-68.33497774015933,12.791754715270198,80.18840026837661,13.530319792743036
1679940070.048843,-76.70046200618889,7.182818713349333,-68.33408785163908,12.791754715409834,80.18840026854416,13.530336777821315
1679940070.382221,-76.70045525764995,7.182819716271864,-68.33027405960786,12.791754715588981,80.18840026870824,13.53034893912844
1679940070.715532,-76.70045410260595,7.182822193719474,-68.32582157364908,12.791754715637614,80.18840026885827,13.530372681044565
1679940071.048667,-79.7703638795731,7.166571154492392,-67.89347738911187,12.791754715600153,80.18840026907174,13.530355255631012
1679940071.382022,-79.77036108895088,7.166570164240749,-67.89832710315024,12.791754715399065,80.18840026890082,13.530350933207298
1679940071.715263,-79.7703564739667,7.166572142800937,-67.90618782939802,12.791754715261591,80.188400268743,13.530332683645867
1679940072.048724,-79.77035103394248,7.166571672969425,-67.9176678407762,12.791754715064195,80.18840026857022,13.530327282055865
1679940072.381852,-82.81601710540743,7.142877451554838,-67.44473203938188,12.791754715148477,80.18840026834359,13.530340147148305
1679940072.715393,-85.87814681033174,7.157419941549338,-67.8192125751425,12.791754714947201,80.18840026842294,13.530323178282826
1679940073.048493,-88.95887795008183,7.149841627030564,-67.58625932738751,12.79175471505583,80.18840026823811,13.53034080891043
1679940073.383468,-92.00520248570197,7.1202372525059365,-66.99352599385237,12.791754715011038,80.18840026848677,13.530330582692617
1679940073.71501,-95.05065865317131,7.006516275473441,-65.26183923204819,12.791754715177722,80.18840026862686,13.530347510391564
1679940074.048239,-98.09844738696022,6.95485251064192,-64.26847418081312,12.791754715356014,80.18840026870477,13.530367445576251
1679940074.381646,-98.09844173589761,6.954854400048661,-64.27413398517191,12.791754715491331,80.1884002685658,13.530387601434231
1679940074.714862,-98.09843968542368,6.954859183908277,-64.27286975887738,12.79175471554854,80.18840026853508,13.530416005747066
1679940075.048124,-101.18156446536422,6.959463508292941,-64.44278664998173,12.791754715452548,80.18840026839692,13.530393198743795
1679940075.381435,-101.18156770252185,6.95945971708812,-64.43521378728923,12.791754715318728,80.18840026857677,13.530377153480266
1679940075.714747,-101.18156913266648,6.95945731824185,-64.4311088505666,12.791754715182401,80.18840026875709,13.530361431822284
1679940076.048048,-101.18156810353112,6.959457993591031,-64.43919814857053,12.791754715061284,80.18840026891463,13.530341787869093
1679940076.381222,-101.1815585813653,6.959456296144071,-64.45700527523024,12.791754714893369,80.18840026911778,13.530346925905954
1679940076.714595,-101.18154839620442,6.959453201606178,-64.4747958281311,12.791754714727746,80.18840026931518,13.530354858381784
1679940077.047807,-104.18455870740277,6.856263300923358,-63.20333657036935,12.791754714954807,80.18840026925649,13.530368510449259
1679940077.381156,-104.18456121088306,6.856263850350861,-63.20071499738677,12.79175471519239,80.18840026913811,13.53036991049647
1679940077.71452,-104.1845619052975,6.856267467677772,-63.194400935342145,12.791754715444425,80.18840026909085,13.530377273791279
1679940078.047773,-104.18456869167974,6.856266595917657,-63.18220218025969,12.791754715683718,80.18840026897652,13.530379030127389
1679940078.381021,-104.18456821331056,6.856268913983104,-63.17413048119766,12.791754715935017,80.18840026890524,13.530384048761444
1679940078.714399,-107.2552623895947,6.8467583703102735,-62.919017890982445,12.791754715678342,80.18840026883905,13.53038397052517
1679940079.0476,-107.25526024694783,6.846757368882025,-62.929214650408454,12.791754715496905,80.18840026901131,13.530394229271684
1679940079.380907,-107.25525677279595,6.846758335065149,-62.93958859435786,12.791754715263808,80.18840026912797,13.530399937449324
1679940079.714093,-107.25525083707423,6.846756872075619,-62.957638859984044,12.791754715168329,80.18840026934429,13.53041389423647
1679940080.047445,-107.25524335207787,6.846752588593943,-62.97256171220755,12.791754715160973,80.1884002695719,13.530429596750825
1679940080.380812,-104.12040208804643,6.6930362970134665,-66.02896011965815,12.791754715073795,80.18840026980966,13.530439527041448
1679940080.714183,-104.12039918388345,6.693037533894743,-66.03225028846984,12.791754714867421,80.18840026965063,13.530445732830595
1679940081.047277,-107.20555790423975,6.705790160370435,-66.49469111320244,12.791754715122128,80.1884002697243,13.530445833089772
1679940081.380531,-107.20555922012974,6.705792616214424,-66.48540684251182,12.79175471535681,80.18840026975141,13.53045907073546
1679940081.714168,-107.20556063385618,6.705793600121523,-66.47676358847421,12.7917547155935,80.18840026982431,13.530469543540056
1679940082.04722,-107.20556176228291,6.70579368994566,-66.47102187463938,12.791754715822622,80.18840026994161,13.530476843800084
1679940082.380401,-110.23298092194293,6.69518637698435,-66.29694444551735,12.79175471563346,80.18840027009782,13.530465335720356
1679940082.713732,-113.30980857901186,6.637417972708029,-64.85519412038109,12.791754715461199,80.18840026989899,13.53045997039499
1679940083.047119,-113.30980435515053,6.637416962406469,-64.86871898904528,12.791754715495683,80.18840027006061,13.530436829228826
1679940083.380286,-113.30980046214546,6.6374169503530105,-64.87340586668509,12.791754715549466,80.18840027019968,13.530412446407517
1679940083.713603,-116.35544781154299,6.686223150891067,-65.8198529743895,12.79175471549093,80.18840027003121,13.530434389056136
1679940084.04689,-119.43022572608788,6.72506648743174,-66.87465787338438,12.79175471552413,80.18840027029877,13.530435109157352
1679940084.380242,-119.43023498466304,6.72506396761221,-66.86767544640188,12.791754715701087,80.18840027033758,13.530456487423749
1679940084.713365,-119.43023274312237,6.725058968504191,-66.87821084098219,12.791754715877298,80.18840027051674,13.530466466507423
1679940085.046793,-122.53001667530256,6.638697295635258,-64.65267114008395,12.791754715614465,80.1884002705463,13.530467944790907
1679940085.380008,-125.59951065078191,6.5507573658744915,-62.896762736523925,12.791754715775287,80.18840027048726,13.53049031348152
1679940085.713243,-128.66053699527671,6.545686788004483,-62.788859789368885,12.791754716033838,80.18840027045815,13.530495775330131
1679940086.046623,-131.7503327480043,6.56055236430385,-63.3615707816431,12.791754715773259,80.188400270418,13.530492958816708
1679940086.379896,-134.7799034879678,6.610594707891605,-64.1994858231374,12.79175471596476,80.18840027043315,13.530513119473483
1679940086.713153,-134.77990298745868,6.610593135255387,-64.18867570032046,12.791754716028843,80.1884002703969,13.530541267808147
1679940087.046462,-134.77990976376498,6.610587846875547,-64.19270961399668,12.791754716094044,80.18840027036887,13.530569494482187
1679940087.379743,-134.77990760634,6.610594516256601,-64.1941498031547,12.791754716048844,80.18840027059046,13.530585435048597
1679940087.713044,-131.74800827862197,6.540332281589738,-65.34163611114504,12.791754715876436,80.18840027069827,13.530566535841048
1679940088.046425,-131.74800228523213,6.540331166483064,-65.35792053585251,12.79175471605928,80.18840027079649,13.530548231026005
1679940088.379682,-131.74800195697105,6.540334506963958,-65.36896392152144,12.791754716274228,80.18840027069528,13.530535123288917
1679940088.712829,-131.7480049908507,6.540332080845062,-65.36674717780882,12.791754716488038,80.18840027071717,13.530518009261796
1679940089.04622,-131.74800261989884,6.540330706768615,-65.35943744911387,12.791754716681506,80.18840027080131,13.53050022190389
1679940089.37949,-131.7480033779253,6.540330713989106,-65.3574696742169,12.791754716897357,80.18840027080451,13.530483261573142
1679940089.712714,-131.7480024847065,6.540333328877362,-65.3561161878414,12.79175471711156,80.18840027070335,13.530470002059202
1679940090.04602,-134.745606508188,6.486944586469003,-64.65499290368167,12.791754716955271,80.18840027088832,13.530482479448452
1679940090.379278,-134.74560243281942,6.486945595435612,-64.66434837389636,12.791754716878788,80.1884002709459,13.530509815100794
1679940090.712521,-134.74560075907436,6.486947488600487,-64.67537769578962,12.791754716794946,80.18840027104261,13.530535537813805
1679940091.04591,-137.83575741300626,6.44458778196452,-63.310809847131864,12.791754716855575,80.18840027111243,13.530563023426586
1679940091.379157,-137.8357517282275,6.444587081820594,-63.31305742627738,12.79175471662042,80.18840027115515,13.530550386479307
1679940091.712467,-137.8357509122979,6.444585829875523,-63.30473624586457,12.791754716385611,80.18840027115881,13.53053685856188
1679940092.045754,-137.83575135635712,6.4445892755525485,-63.30213711477675,12.791754716219428,80.18840027098521,13.530524023067315
1679940092.379008,-137.8357511749256,6.444589579613809,-63.30107858682351,12.791754715990427,80.18840027093862,13.530510218965233
1679940092.712338,-137.83574809302826,6.444588128312763,-63.30783643358307,12.791754715753516,80.18840027097092,13.530497620253659
1679940093.045637,-137.83574415522043,6.444589190466063,-63.317168337916954,12.791754715526775,80.18840027091761,13.530483646448605
1679940093.378853,-137.8357368542428,6.4445930635604265,-63.326539034617504,12.791754715351951,80.18840027075727,13.530470197727212
1679940093.71209,-137.8357340654287,6.444591854533567,-63.33832921076449,12.791754715117923,80.18840027079055,13.530456983972394
1679940094.045485,-137.8357328153069,6.4445917302724425,-63.345864862121104,12.791754714891892,80.18840027075129,13.530442338652975
1679940094.378791,-137.83572969245085,6.4445938310247355,-63.34506465387453,12.79175471470843,80.18840027060855,13.530427990323604
1679940094.712213,-137.83572893015906,6.444592665853372,-63.3390129916756,12.7917547144771,80.1884002706229,13.53041382736265
1679940095.04534,-140.89774784396693,6.473395020691595,-64.03927669256313,12.79175471469428,80.18840027058215,13.53042998733329
1679940095.378688,-140.89775152870104,6.473390582821351,-64.03711075486552,12.791754714788315,80.18840027058226,13.530457368899407
1679940095.711923,-143.9609033089206,6.4526215813096295,-63.532245177841205,12.791754714755713,80.18840027067522,13.530430108500962
1679940096.045166,-143.9608966141486,6.452623947636422,-63.534324818676325,12.79175471457719,80.18840027057954,13.530411136010587
1679940096.378605,-143.96089566242665,6.452624176533176,-63.54041067694065,12.791754714400149,80.1884002704814,13.53039214064065
1679940096.711681,-143.96089278299164,6.452623312590596,-63.544857886422335,12.791754714203474,80.18840027045208,13.53037279175799
1679940097.045018,-143.96089396690164,6.4526231203064,-63.54357585744005,12.791754714034175,80.18840027033987,13.530353850785007
1679940097.378318,-143.96089339840978,6.45262534886789,-63.54126029200625,12.791754713900321,80.18840027016739,13.53033687989691
1679940097.711547,-143.96089023034017,6.452629094410474,-63.534111089171525,12.79175471377286,80.18840026998578,13.53032043914902
1679940098.044854,-147.01544724065593,6.422281778622994,-62.870064510431284,12.791754713866666,80.18840026983268,13.530342210928708
1679940098.378218,-147.0154468526564,6.422282149342322,-62.870443302945766,12.791754714080891,80.18840026998832,13.530345485703522
1679940098.711377,-147.015446892698,6.422282024677948,-62.87355022936396,12.79175471431817,80.18840027010526,13.530348268676933
1679940099.044802,-150.08189479512944,6.3845141792980264,-61.960072733562,12.79175471420087,80.18840027034585,13.530345583083424
1679940099.377957,-150.0818907874006,6.3845141263051435,-61.971467008009085,12.791754714033898,80.18840027025799,13.530366215438214
1679940099.711254,-150.0818859962823,6.3845173660986205,-61.97751029373107,12.791754713913196,80.18840027004532,13.530378319417558
1679940100.044627,-150.08188238827248,6.384518099203747,-61.98353206486071,12.79175471375346,80.1884002699097,13.530396456294499
1679940100.377897,-150.08187953813484,6.384517028187874,-61.98653947042552,12.791754713579424,80.18840026983926,13.530417164160939
1679940100.711048,-150.08188091144092,6.384516451061689,-61.98440836508376,12.791754713415447,80.18840026971073,13.530435442257385
1679940101.044384,-150.08188359300232,6.384516359802,-61.97687087590343,12.791754713264924,80.188400269544,13.530451347364266
1679940101.377769,-153.13559808218196,6.439033243790447,-63.08259012798795,12.791754713526807,80.1884002695068,13.530449830741977
1679940101.711091,-153.1355956889446,6.439035021072557,-63.07756243403367,12.79175471368794,80.18840026970749,13.530457920753216
1679940102.044384,-153.13559409313197,6.439032895786382,-63.085751330786344,12.791754713921105,80.18840026981016,13.530466187443489
1679940102.377553,-153.135591319137,6.439032074275861,-63.097357391820175,12.791754714162385,80.18840026989056,13.530474511513095
1679940102.710879,-153.13558531921527,6.439031065266978,-63.11323429564098,12.79175471441652,80.1884002699103,13.530482446765099
1679940103.044046,-153.13558052511684,6.439031164462866,-63.121731320580025,12.791754714652336,80.1884002699997,13.530491567304226
1679940103.37737,-153.1355789890392,6.439031664233784,-63.12095271030833,12.791754714846276,80.1884002701622,13.530500862551321
1679940103.710741,-153.1355778432793,6.439033757008814,-63.1141988644567,12.791754714976697,80.18840027038445,13.530509080551644
1679940104.044193,-156.20253443815,6.4458183573216035,-63.30466160293713,12.791754714793576,80.18840027056143,13.530500233266347
1679940104.377263,-156.20253607922336,6.445818408408092,-63.30161845024946,12.791754714645297,80.18840027036839,13.530488004125644
1679940104.710542,-156.20253564642636,6.445818692356836,-63.300340308677605,12.791754714484263,80.18840027018858,13.530475377787264
1679940105.043877,-156.20253455730256,6.445818606438257,-63.30856918720277,12.79175471431055,80.18840027002426,13.530462327326408
1679940105.377116,-156.2025305451855,6.4458176546002335,-63.31859782555062,12.791754714093821,80.18840026993945,13.530448246440763
1679940105.710551,-156.20252837528832,6.445817440854717,-63.32660568011778,12.791754713912205,80.18840026978907,13.530434546488443
1679940106.043638,-156.20252710000045,6.445817565470066,-63.326616578764224,12.791754713755308,80.1884002696079,13.530421517090733
1679940106.377196,-156.202525695946,6.445819567980348,-63.32075031432306,12.791754713616816,80.18840026940765,13.53040924890922
1679940106.710232,-156.20252586496136,6.445820771112536,-63.316399545073146,12.791754713482973,80.18840026920266,13.530397275798235
1679940107.043569,-156.20252596656593,6.445821474974611,-63.31784847060716,12.791754713330475,80.18840026901549,13.530384614000326
1679940107.37686,-156.20252471512032,6.445821876028284,-63.32153461891827,12.791754713163469,80.18840026884517,13.530371400193959
1679940107.710332,-156.20252232837086,6.445821559469882,-63.323929120899834,12.791754712944073,80.18840026877275,13.530357013680435
1679940108.04337,-156.2025187830777,6.445821298942327,-63.336558513226315,12.79175471275221,80.18840026863981,13.530342904208226
1679940108.376752,-156.20251381087564,6.445823805236824,-63.34351208905315,12.791754712627908,80.18840026842862,13.53033094059173
1679940108.709987,-156.2025166655887,6.445822786886101,-63.342686762623025,12.791754712469277,80.18840026825174,13.530317480456333
1679940109.043304,-156.20251305004902,6.445822730245659,-63.338390445053015,12.791754712274455,80.18840026812795,13.530302895292419
1679940109.37657,-156.20250710730073,6.44581822249405,-63.34049367231297,12.791754712042724,80.18840026812948,13.530288726521361
1679940109.709882,-156.20250129640561,6.445819484329049,-63.34797295872714,12.79175471189235,80.18840026794327,13.530275593933645
1679940110.043137,-156.2024983888683,6.445823766802671,-63.34940601825662,12.791754711813768,80.18840026770228,13.530265706574419
1679940110.376425,-156.20249049574716,6.445829937255233,-63.35710350132238,12.791754711710595,80.18840026747637,13.530254481243007
1679940110.709758,-156.20249131590728,6.4458336692970795,-63.356800449683405,12.791754711659777,80.18840026722334,13.530246017770313
1679940111.042996,-156.20248010032856,6.445830072737599,-63.373090784991085,12.791754711445739,80.18840026714898,13.53023078225828
1679940111.376335,-156.20247192194586,6.445821803037359,-63.37961239440323,12.7917547112493,80.18840026730638,13.530221105923207
1679940111.709502,-156.20247405083396,6.445821223483909,-63.38236826619312,12.791754711092532,80.18840026713285,13.530206884726265
1679940112.042796,-156.20247726796725,6.445824777804419,-63.38064657201028,12.791754711013116,80.18840026689386,13.5301965178363
1679940112.376097,-156.20246813394425,6.445817678204089,-63.37991706093351,12.791754710827007,80.1884002670671,13.530187556752098
1679940112.709389,-156.20246892160995,6.445817134388736,-63.38087149610987,12.791754710671173,80.18840026689239,13.530173381417379
1679940113.04277,-156.20246648876812,6.445822180478389,-63.389515280022515,12.791754710588958,80.18840026665539,13.530162742387995
1679940113.375929,-156.2024690405997,6.445822550276771,-63.38405809503152,12.791754710460413,80.18840026645256,13.53014967672565
1679940113.709353,-156.2024631028077,6.445819158807546,-63.39164376240866,12.791754710253844,80.1884002663679,13.530133826170372
1679940114.042561,-156.20245383530852,6.445816202882124,-63.405699275768015,12.791754710045314,80.18840026629191,13.53011777499364
1679940114.375832,-156.20245052989515,6.445815955829464,-63.41459227354235,12.791754709869663,80.18840026615027,13.530102160364697
1679940114.709074,-156.20244791088842,6.445819854515596,-63.418749951087776,12.791754709782348,80.18840026591816,13.530090779314294
1679940115.042392,-156.20244987912986,6.445819785703755,-63.41637324697164,12.79175470964356,80.18840026572943,13.53007655700294
1679940115.375766,-156.20245393765447,6.445818483412112,-63.40438503610654,12.791754709489167,80.18840026555817,13.530061709297199
1679940115.709048,-156.20245817800722,6.445819148485563,-63.39718156163355,12.791754709378443,80.18840026534134,13.53004931115553
1679940116.042379,-156.20245282089263,6.445815198129777,-63.40562354435776,12.79175470917393,80.1884002652563,13.530033160730929
1679940116.375617,-156.20244631967026,6.445812623941149,-63.414873178308405,12.791754708952846,80.18840026524259,13.53001711339323
1679940116.708848,-156.20244180664852,6.445814088675509,-63.42352133181626,12.791754708790501,80.18840026508286,13.530001795754337
1679940117.042069,-156.20244082227606,6.445818078631609,-63.43060810752373,12.791754708751135,80.1884002648279,13.529993274045653
1679940117.3754,-156.20243755577613,6.44581776443108,-63.435029733951815,12.79175470858981,80.18840026466962,13.52997765072733
1679940117.708637,-156.20243697291096,6.445815754056155,-63.43281425511666,12.791754708404742,80.18840026455226,13.529961025673884
1679940118.042092,-156.20243955340197,6.4458169438482456,-63.42879902987176,12.791754708291846,80.1884002643401,13.529947935212459
1679940118.375293,-156.20244177524341,6.445818042949362,-63.424491180076735,12.791754708171046,80.18840026413451,13.529934477904787
1679940118.708564,-156.20244288351205,6.4458173748912175,-63.42266644935349,12.791754708010691,80.18840026397329,13.529919085817104
1679940119.041912,-156.20244252925787,6.445817122819934,-63.41943882339587,12.791754707848108,80.1884002638148,13.529903649632065
1679940119.375141,-156.20243655573586,6.445818023286375,-63.42646157067845,12.791754707679578,80.18840026366493,13.529887979594859
1679940119.708369,-156.20243217938778,6.445816601404264,-63.43627050187161,12.79175470746656,80.1884002636235,13.529871175994412
1679940120.041662,-156.20242534497686,6.44581580549364,-63.44819230184974,12.791754707273373,80.18840026352483,13.529854251928297
1679940120.375048,-156.20242399207996,6.445817278359035,-63.451111364239836,12.79175470715942,80.18840026331564,13.52984071729256
1679940120.708228,-159.2649747253041,6.452210148220398,-63.624494150322995,12.791754707281031,80.18840026311823,13.529855466710192
1679940121.041527,-162.3201558311677,6.455713231909517,-63.71414683928559,12.791754707190238,80.18840026333561,13.529841324709283
1679940121.374897,-165.38520713025588,6.452580421764227,-63.643315954322595,12.791754707216404,80.18840026311014,13.529857143798717
1679940121.708116,-165.3852081752664,6.452581286931671,-63.64281081834375,12.7917547072755,80.18840026334347,13.529870311588208
1679940122.041369,-165.38520765184197,6.452580609946324,-63.643797871105924,12.791754707371872,80.18840026354276,13.529886930077994
1679940122.37476,-168.23241440631273,6.340701542843347,-62.924074738751926,12.791754707432364,80.18840026376014,13.529870925723245
1679940122.707966,-168.23240978272688,6.340703512997879,-62.92331391727441,12.79175470738797,80.18840026349491,13.529868815069307
1679940123.041384,-168.23240531123946,6.340701804286445,-62.93221700793809,12.791754707203003,80.18840026330399,13.529865740812848
1679940123.374601,-168.23240246088795,6.340700872605451,-62.94234037196394,12.791754707072089,80.18840026307106,13.529862804246164
1679940123.707822,-168.23240685567228,6.340700038253807,-62.95235252749885,12.79175470699684,80.18840026281349,13.529860235124634
1679940124.041146,-171.3477687643844,6.333678971248931,-62.470579430057775,12.79175470696938,80.18840026254696,13.529863603491863
1679940124.374518,-171.34777820247058,6.3336755487079275,-62.48679122277162,12.791754707055052,80.18840026280137,13.529861337222036
1679940124.707651,-171.3477890416298,6.333673539182035,-62.5002498823494,12.791754707126463,80.1884002630608,13.529859868381488
1679940125.040972,-171.34780010333176,6.333667957241962,-62.5082436496762,12.791754707236047,80.18840026330498,13.52985703394195
1679940125.374344,-171.34780840053378,6.333667180126292,-62.51510132688547,12.791754707300763,80.18840026356644,13.529856075086673
1679940125.707498,-171.34781680171264,6.333666012432615,-62.52505411046349,12.791754707373908,80.18840026382547,13.529854821160868
1679940126.040772,-171.9578716399475,6.469379136197824,-62.56884921908898,12.79175470716923,80.18840026389037,13.529837629702579
1679940126.374137,-171.95785890870667,6.469381554956258,-62.55376203495415,12.791754706961095,80.18840026372531,13.529840195790182
1679940126.707405,-171.95785121741613,6.469381808030038,-62.54572860209009,12.791754706757379,80.18840026355484,13.529842930125193
1679940127.040681,-171.95784712926664,6.469382506640931,-62.54394613652802,12.791754706544095,80.18840026339846,13.529846526740686
1679940127.373886,-171.95783980519437,6.4693848849426425,-62.539143208717704,12.791754706308962,80.18840026328418,13.529851750691893
1679940127.707283,-168.8683081313764,6.489760672737819,-61.774795517325295,12.791754706216667,80.18840026353145,13.529857496093928
1679940128.040493,-168.86829823722366,6.489762056022688,-61.7655616025522,12.791754706351435,80.18840026368375,13.529838463344944
