Timestamps,Roll_N,Pitch_E,Yaw_U,Latitude,Longitude,Altitude
1679940278.433502,2.22,9.57,-85.19,12.791825294,80.188644409,7.77
1679940278.766777,2.220005034997135,9.570003204594483,-85.1658158021685,12.791825293969977,80.18864440873394,7.770003530532357
1679940279.100028,2.2200130880165947,9.570005846898038,-85.14220921627057,12.791825293999375,80.18864440847123,7.770009349578073
1679940279.43325,2.2200220193188986,9.570010492307185,-85.13138807360467,12.791825294000171,80.1886444082048,7.770013939445511
1679940279.766568,2.2200196192217123,9.570007434534482,-85.13556304574682,12.79182529415641,80.18864440800292,7.770022817288441
1679940280.09977,2.2200162305916185,9.570002456540808,-85.1595544236935,12.791825294152193,80.18864440826964,7.770018440519327
1679940280.433077,-0.8817942892061827,9.556132620643094,-84.52031046885716,12.79182529435201,80.18864440842952,7.770026686094904
1679940280.766382,-0.8818011306516776,9.556129184038712,-84.53888393254434,12.791825294464385,80.18864440818524,7.770026660284515
1679940281.099683,-0.881804756533598,9.556128047321462,-84.55185532987325,12.791825294595093,80.1886444079507,7.770026065396209
1679940281.433067,-0.8818115286418123,9.55612574282072,-84.55041937745081,12.791825294722752,80.18864440771439,7.770025646175629
1679940281.765803,-0.8818191430710697,9.556123806135055,-84.54293840443259,12.791825294864521,80.18864440748676,7.77002458327369
1679940282.099068,-0.881817550474946,9.556122012270379,-84.53635656363157,12.791825294920288,80.18864440722375,7.770026678519935
1679940282.432383,-0.8818087613605728,9.556121940218482,-84.53830804251817,12.791825294900503,80.18864440695816,7.770031330462397
1679940282.765765,-0.8818105166490056,9.556122562541805,-84.54990442776622,12.791825295053563,80.1886444067385,7.7700297670696745
1679940283.099092,-3.877452662160574,9.739625781808762,-86.35834276701456,12.791825295098604,80.18864440648055,7.770036745437473
1679940283.432306,-3.8774572191990124,9.739627048255887,-86.37129265111072,12.791825295138729,80.18864440663629,7.770013242326958
1679940283.765506,-6.9596157633582205,9.734486510523807,-86.22328582644495,12.791825295092544,80.18864440682624,7.770033401920872
1679940284.098983,-6.959614507013371,9.734486901672232,-86.22950542875617,12.791825295064056,80.18864440663388,7.7700536971303915
1679940284.432143,-6.95961034235426,9.734487159491882,-86.23861395167619,12.791825295022191,80.18864440641696,7.770070484621141
1679940284.765384,-6.95960347747599,9.734484479315295,-86.24444586291781,12.791825294942441,80.18864440615972,7.770070812271925
1679940285.098762,-6.959603279461596,9.734485816096694,-86.24795830362694,12.791825294918654,80.18864440598712,7.770093168382571
1679940285.43198,-10.0601295659845,9.743156456776202,-86.68392677319683,12.791825294972119,80.18864440588305,7.770066799108925
1679940285.765283,-10.0601306528503,9.743157697091862,-86.67403411775052,12.791825295075846,80.188644405993,7.770042636104252
1679940286.098605,-13.008967078643977,9.734162589847905,-86.57478559385376,12.791825294930732,80.1886444061619,7.770058884971616
1679940286.4318,-13.008959359529294,9.734161724181641,-86.57396438148622,12.791825294838628,80.18864440592738,7.770069170488276
1679940286.765165,-13.008951286369852,9.734164337778985,-86.5768769672925,12.791825294759407,80.1886444058049,7.770093754736149
1679940287.09856,-13.008946060503336,9.734163053331839,-86.59350979952984,12.791825294670389,80.18864440557792,7.770106152877816
1679940287.431704,-13.00894365469017,9.734164413659352,-86.61188399651373,12.79182529458613,80.18864440543821,7.770129411527268
1679940287.764972,-13.008943969581674,9.734167157502158,-86.6246698879879,12.791825294507294,80.18864440535302,7.77015579984144
1679940288.09833,-13.008938765316813,9.734167166292666,-86.63763694250122,12.791825294411119,80.18864440516751,7.770174212799937
1679940288.431541,-13.0089371250419,9.734165000612945,-86.63752051732543,12.791825294311883,80.18864440494123,7.770185784874208
1679940288.764831,-13.008937482989197,9.734168344023448,-86.62975518438934,12.791825294235654,80.18864440489953,7.770213468022965
1679940289.098098,-13.008938994673024,9.734167590029703,-86.61576040288153,12.79182529414477,80.18864440479146,7.7702383512319555
1679940289.431404,-13.008942743150609,9.734164984431228,-86.60223424309861,12.791825294045516,80.18864440461084,7.770257133812874
1679940289.764714,-16.131006585627016,9.634215109074722,-83.84829727523082,12.791825294187063,80.18864440438931,7.770251289008319
1679940290.097956,-13.004985763384557,9.498664886844873,-86.77879887916723,12.791825294211753,80.18864440459105,7.770232036648903
1679940290.431249,-10.084798787951552,9.128684203943134,-88.87145677119749,12.791825293983267,80.18864440454901,7.770217958642535
1679940290.764578,-10.08479762840312,9.128685214450242,-88.88800147271463,12.791825294141521,80.18864440472686,7.77023132230624
1679940291.09788,-10.084800254384295,9.128687849447022,-88.89407281392002,12.791825294311591,80.18864440483777,7.770250269089328
1679940291.431116,-10.084805793776239,9.128690134048018,-88.88031446708194,12.791825294482882,80.1886444049403,7.770269634133237
1679940291.764433,-10.084808102173472,9.12869037386217,-88.86740808768667,12.791825294652307,80.18864440508457,7.77028579981088
1679940292.097668,-10.084807467397052,9.128690136927409,-88.86146548253183,12.791825294816539,80.18864440525392,7.770299577039714
1679940292.430937,-10.084807230368364,9.128689878285964,-88.86127966921958,12.791825294980805,80.18864440542346,7.770313323659364
1679940292.764216,-10.084803380906292,9.128687752354487,-88.8698211826573,12.791825295044084,80.18864440568193,7.770308692728496
1679940293.097571,-10.084795956660052,9.128687946361573,-88.88483796311151,12.791825295160786,80.18864440592097,7.770312898731781
1679940293.430923,-10.084792532916468,9.128689286280533,-88.89633715026473,12.791825295313995,80.18864440610915,7.7703252786895805
1679940293.764106,-10.084791920458755,9.128688276622784,-88.90027658705313,12.791825295454284,80.18864440632153,7.770334515700686
1679940294.097403,-10.084786914532298,9.128687372609246,-88.90621029377833,12.791825295562822,80.18864440656617,7.770337390346996
1679940294.430798,-10.084784717422044,9.128689404241614,-88.90511902434858,12.791825295728788,80.18864440669832,7.770355139520747
1679940294.764074,-13.15955249412664,9.143362232609139,-89.34513249062647,12.791825295548511,80.18864440673367,7.770334034405081
1679940295.097261,-13.159551259280626,9.143361541873338,-89.34338199947157,12.791825295461278,80.18864440654446,7.770315519267888
1679940295.430532,-13.159550276580003,9.143360318806302,-89.34406013724828,12.791825295373393,80.18864440633712,7.770299500619856
1679940295.763805,-13.15954736208469,9.14335846547261,-89.34921533249668,12.791825295288172,80.18864440610005,7.770289181614736
1679940296.097099,-16.19814301771258,9.099966199909636,-88.5599809501451,12.791825295197924,80.18864440588352,7.770303517570341
1679940296.430452,-16.198141679368398,9.099968000033563,-88.55872796378625,12.791825295417981,80.18864440598522,7.770315493560601
1679940296.763641,-16.198138187039596,9.099969221891264,-88.55741716018477,12.791825295626406,80.1886444061282,7.770324730520156
1679940297.097003,-16.198136037708394,9.099967493345101,-88.56236498115246,12.79182529580565,80.18864440632147,7.770329670866388
1679940297.430401,-19.20308464787221,9.080911099926444,-88.29854508456414,12.79182529567116,80.1886444065206,7.77031666344003
1679940297.763543,-19.203083096521198,9.080913219185168,-88.30375149997522,12.791825295424045,80.18864440644366,7.770310273396879
1679940298.096848,-19.203078311019873,9.080914373279667,-88.30713028788924,12.791825295198386,80.1886444063056,7.7703071008007605
1679940298.430197,-19.20307856453342,9.080911292954237,-88.31253588834024,12.791825295017425,80.18864440610884,7.7703079975294616
1679940298.763516,-19.203077397884165,9.080911559093094,-88.3151292399746,12.791825294793275,80.18864440596836,7.770304772352806
1679940299.096645,-19.203074810711477,9.080909229952228,-88.31932712064979,12.791825294623377,80.18864440576196,7.770306373021474
1679940299.430036,-19.20307449812878,9.08091275314449,-88.31798421524277,12.791825294373533,80.18864440574482,7.770296859020603
1679940299.763284,-19.203075548436743,9.080915248683944,-88.31414035771662,12.791825294123157,80.18864440571907,7.770287752877859
1679940300.096673,-22.258297831898204,9.063632975188936,-87.9289160006997,12.791825294287973,80.18864440551218,7.770292321682152
1679940300.429856,-22.258297018942127,9.063634656523112,-87.9291724033684,12.79182529454557,80.18864440556685,7.770289060292412
1679940300.763105,-25.312667168503065,9.021520530695478,-87.03559064517519,12.791825294543749,80.18864440530116,7.7702839871583
1679940301.096377,-25.3126666869929,9.021520189188465,-87.03432546912944,12.791825294417968,80.18864440522583,7.770308429123806
1679940301.429636,-25.312664297456404,9.02151792556125,-87.03830461567004,12.791825294385514,80.18864440503137,7.770328410222269
1679940301.763037,-25.312663499158376,9.021518355491775,-87.04844153137576,12.791825294262571,80.18864440494997,7.770352801578305
1679940302.096312,-25.312662653854286,9.021519808913025,-87.05222528832365,12.791825294109035,80.18864440492823,7.770376547333466
1679940302.429512,-25.31265989679394,9.021519985315129,-87.04812347030484,12.791825293999167,80.18864440481961,7.770400445876791
1679940302.762915,-25.312656082085624,9.02152337149831,-87.04804410858935,12.79182529382952,80.1886444048484,7.770422717135953
1679940303.096125,-25.31265241045794,9.021520615715717,-87.05351258480498,12.791825293765653,80.18864440468215,7.770444676957132
1679940303.429393,-25.31264913799724,9.021521612034842,-87.05370290988462,12.791825293639867,80.18864440459963,7.770468845771909
1679940303.762702,-25.31264618175356,9.021521515689674,-87.06121830500241,12.791825293544578,80.18864440447021,7.77049228488788
1679940304.095969,-25.312640928683383,9.021519364689745,-87.06947090991522,12.791825293530444,80.18864440425831,7.770510346356272
1679940304.429266,-25.312638791412212,9.02152102823896,-87.06899111579375,12.791825293377943,80.1886444042233,7.770533986093702
1679940304.762576,-25.31264324985516,9.021520943191947,-87.06762649939357,12.791825293229623,80.18864440417899,7.770557769073257
1679940305.095886,-25.31264309007779,9.021517129163367,-87.06926137363989,12.791825293162118,80.18864440401208,7.7705795350943925
1679940305.429211,-25.312637684180906,9.02151716414817,-87.0744404708159,12.79182529306577,80.18864440387948,7.770602709749016
1679940305.762489,-25.312634316005415,9.021519267080471,-87.07748142894638,12.791825292910717,80.18864440384773,7.770626202353733
1679940306.095713,-25.312627421533715,9.021519146954619,-87.0851922788815,12.791825292806426,80.18864440372367,7.77064951454348
1679940306.429025,-28.36802885327409,9.128714563764774,-88.86779901901203,12.791825292619565,80.18864440386687,7.770635769740246
1679940306.762332,-31.464189345049785,9.162527237076716,-90.15370881829949,12.791825292724601,80.18864440373667,7.770612897988878
1679940307.095551,-34.56229779400654,9.123769885112512,-88.70517100806535,12.79182529291558,80.18864440368587,7.770593374398251
1679940307.428848,-34.56229088668601,9.12376754750229,-88.71373809962084,12.791825293087264,80.18864440387378,7.77060236876471
1679940307.762207,-34.562286182247014,9.12376641238924,-88.72994142571496,12.791825293276576,80.18864440401785,7.7706155872667715
1679940308.095438,-34.562278685541266,9.123766009524447,-88.74973012382624,12.791825293467397,80.1886444041471,7.770630265114892
1679940308.428696,-34.56227604710193,9.123767494830764,-88.75518309291813,12.79182529365852,80.18864440416952,7.770650388341069
1679940308.762076,-34.56228050002772,9.123768438758074,-88.74964782776088,12.79182529384291,80.1886444041605,7.770671386633898
1679940309.095268,-34.56228400504315,9.123770698738786,-88.74077518260415,12.79182529401809,80.1886444041163,7.770692820205455
1679940309.42861,-34.56228559932723,9.123772058861286,-88.73163594649152,12.791825294200134,80.18864440408805,7.770713867085132
1679940309.761867,-34.5622824298956,9.123768994059729,-88.73123029178744,12.791825294395423,80.18864440420101,7.770729384334174
1679940310.095094,-34.56227995395089,9.123767680694272,-88.74335275104173,12.791825294592755,80.1886444042808,7.770746887075793
1679940310.42868,-34.56227633132532,9.123765115103916,-88.7507191696085,12.791825294787262,80.18864440438105,7.7707635141518585
1679940310.761748,-34.56227547687413,9.123766983273327,-88.75405383901804,12.791825294948573,80.18864440430256,7.770785120614966
1679940311.095008,-34.562269106206024,9.123767008121328,-88.75216333178508,12.791825295138048,80.18864440443187,7.770800004688446
1679940311.428274,-34.56225954041661,9.123760202641666,-88.7556264233225,12.791825295258567,80.18864440467135,7.77080203402063
1679940311.761596,-37.68895538776361,9.052725655700486,-86.03965094411434,12.791825295076288,80.18864440486546,7.7707993580762595
1679940312.094953,-37.68895839426312,9.052723196150957,-86.05346618701135,12.791825295184632,80.18864440481781,7.770825579308986
1679940312.428136,-37.688955228125394,9.052724535759616,-86.06938464213849,12.791825295281644,80.18864440479531,7.770852725856977
1679940312.761427,-37.68895977787192,9.052726891517969,-86.06510309283969,12.791825295357027,80.18864440481907,7.770880686150151
1679940313.094764,-37.68895566855453,9.052730718842032,-86.06600193509861,12.791825295437006,80.18864440483388,7.770908563253604
1679940313.427975,-37.68895424670967,9.05272954547685,-86.06130123499595,12.791825295539986,80.18864440477786,7.770934853331219
1679940313.761338,-37.68894879477804,9.052726101758939,-86.06369733535227,12.791825295656716,80.18864440467304,7.7709585541323625
1679940314.094559,-37.68894512806614,9.052727357822418,-86.07047977498604,12.79182529575272,80.18864440464446,7.770985674973066
1679940314.427844,-37.68893845213578,9.052723568198687,-86.07446206125832,12.791825295874268,80.18864440450204,7.771006604369457
1679940314.761144,-37.6889404663299,9.05272210518272,-86.07138083485904,12.791825295977956,80.18864440443681,7.771032610635892
1679940315.094416,-37.68894357083129,9.052721739184559,-86.06909593484802,12.791825296069508,80.18864440441446,7.771059989322732
1679940315.427786,-37.68894359626377,9.052721037875942,-86.06487179762375,12.7918252961741,80.18864440435013,7.771085974629125
1679940315.760989,-37.68894253620687,9.052720529191665,-86.06101413129358,12.791825296277311,80.18864440429446,7.77111226273567
1679940316.094325,-37.68893951691075,9.052722869914291,-86.06165890109024,12.791825296354627,80.1886444043187,7.771140154080855
1679940316.427545,-37.68893935526869,9.052721963082055,-86.06162391452072,12.791825296453917,80.18864440427998,7.771166980862337
1679940316.760851,-37.68893773609582,9.052723119880447,-86.06013285599143,12.791825296543468,80.18864440427073,7.771194528498591
1679940317.094116,-37.688936387990985,9.052724229629684,-86.06217375696728,12.791825296631036,80.18864440426849,7.771222169881914
1679940317.427422,-37.68893320753467,9.0527236171845,-86.06796602057426,12.79182529673654,80.18864440420994,7.771248272568491
1679940317.760692,-37.688931423697845,9.052723058012285,-86.07113260401952,12.791825296840482,80.18864440415129,7.771274448898752
1679940318.093979,-40.748328139363565,9.019615676674999,-85.32066126344435,12.791825296713801,80.18864440416623,7.771248779726037
1679940318.427299,-40.748322763107296,9.019615823170763,-85.32838977193158,12.791825296478256,80.1886444042545,7.771239447202997
1679940318.760567,-40.74831696852482,9.019616981415627,-85.33466423088834,12.791825296242912,80.18864440427463,7.771226206729581
1679940319.09381,-40.748314716997186,9.019615629143729,-85.34024870318869,12.79182529600616,80.188644404327,7.771214390194247
1679940319.427121,-40.748314390050446,9.019615641990974,-85.33928017220678,12.791825295773483,80.1886444043412,7.771200496493436
1679940319.760355,-40.74831560321954,9.01961533055359,-85.3320713165961,12.791825295549758,80.18864440431665,7.7711850603599455
1679940320.093667,-43.80816785089179,9.026798264147834,-85.5156943771307,12.79182529575344,80.18864440431535,7.771203775055735
1679940320.42702,-43.808167007529754,9.026799618759197,-85.51233063648557,12.791825295934034,80.18864440437794,7.771224089408881
1679940320.760318,-43.80816439797088,9.026799151721102,-85.51547840236256,12.791825296138652,80.18864440437737,7.771242677983553
1679940321.093514,-46.859966539053715,8.991961456898485,-84.78583144417213,12.791825295961534,80.18864440449056,7.771224707382952
1679940321.426913,-46.859964159667335,8.991961041731194,-84.79315645872312,12.791825295696945,80.18864440448762,7.771225750284606
1679940321.760084,-46.85996185482339,8.991961607816284,-84.80017173763403,12.791825295433245,80.18864440446349,7.771225508599719
1679940322.093476,-46.859961820449364,8.991958793095248,-84.80449128636323,12.791825295178594,80.18864440452786,7.771229441349173
1679940322.426708,-49.90633605756441,8.905006218229211,-83.32973922348947,12.791825295038972,80.18864440475699,7.771230186301019
1679940322.760012,-49.906333663011566,8.905006646322489,-83.32944519827349,12.791825295088536,80.18864440480972,7.771201988213544
1679940323.093263,-49.90633473992687,8.905007707475677,-83.32667124383774,12.791825295156318,80.18864440489625,7.771175275179416
1679940323.426592,-49.90633526306309,8.90500824943637,-83.3240133551454,12.79182529522491,80.1886444049856,7.771148699680411
1679940323.759886,-52.9686855228747,8.909481922788803,-83.45079929902067,12.791825295132366,80.18864440507659,7.771174303898825
1679940324.093148,-52.96868015065009,8.909482424226889,-83.45432212518062,12.791825295054927,80.18864440502753,7.771201805775955
1679940324.426599,-56.008695017873826,8.874543063776551,-82.8045592150825,12.791825295131591,80.18864440495433,7.771174918890517
1679940324.759664,-56.008694057574246,8.874542831360392,-82.8077253472407,12.791825295067207,80.18864440503393,7.771147853406526
1679940325.092982,-56.00869314389967,8.874543130687236,-82.80860974428174,12.79182529499414,80.18864440510009,7.7711206324612965
1679940325.426233,-56.008690671527745,8.874543327027483,-82.81061708258285,12.791825294943164,80.1886444051963,7.771093854575969
1679940325.759545,-56.008691543196434,8.87454278225677,-82.81123147420294,12.791825294883125,80.18864440527973,7.7710668024255005
1679940326.092832,-56.00869023586743,8.874543348837,-82.80992466882864,12.791825294842178,80.1886444053876,7.771040340622298
1679940326.426166,-56.00868782511442,8.874542734175888,-82.81154951850259,12.791825294770025,80.18864440545428,7.7710131042178245
1679940326.759375,-56.008683798585245,8.874540001054251,-82.81698818367697,12.791825294651291,80.18864440544247,7.770986954657712
1679940327.092655,-56.00868083911192,8.874540304071576,-82.82313036525589,12.791825294570513,80.18864440549375,7.770959622741304
1679940327.425999,-59.03209787358912,8.882301764166938,-82.9675766343838,12.791825294553439,80.18864440563499,7.770984507013155
1679940327.759319,-59.032098357496835,8.88230211536398,-82.96855790448556,12.79182529455154,80.18864440551839,7.771010921994374
1679940328.092542,-62.10442390822693,8.859969858441973,-82.35588169973863,12.791825294513744,80.18864440546128,7.770982602533024
1679940328.425861,-65.14819199492798,8.86760288265199,-82.5185464158355,12.791825294552504,80.18864440564316,7.771003806039902
1679940328.759127,-65.14819074646195,8.867602209242955,-82.51990470957753,12.791825294624648,80.18864440549878,7.771027227126658
1679940329.092442,-65.14818878405026,8.867602049494735,-82.52507282537836,12.79182529469649,80.18864440535417,7.7710506414435505
1679940329.425697,-68.18936327465049,8.858381929998986,-82.35566139027769,12.791825294644529,80.18864440521551,7.771026181397278
1679940329.758935,-71.19723999588625,8.798410861736661,-81.52317007783455,12.791825294804907,80.18864440519752,7.7710494057016115
1679940330.092203,-74.24013556181,8.735465370756208,-80.39867136101327,12.791825294622575,80.188644405376,7.771040711204479
1679940330.425555,-74.24013127455811,8.735465755706691,-80.40444207765391,12.791825294458448,80.18864440551293,7.771058239756488
1679940330.758884,-74.24013068553111,8.735466802412471,-80.40418265710011,12.79182529428012,80.18864440570415,7.771064378465611
1679940331.092101,-74.24013153959893,8.735467753361778,-80.39944256155347,12.791825294103813,80.1886444059023,7.771068216869094
1679940331.425357,-74.24013336058864,8.735468439242652,-80.39285692569374,12.791825293927024,80.18864440609543,7.771074195318185
1679940331.75888,-74.24013312692847,8.73546778909156,-80.39103243248205,12.791825293751609,80.18864440626997,7.771085254476358
1679940332.092014,-77.29781784904524,8.716518471859171,-79.9591904022048,12.791825293982992,80.18864440635694,7.771074596303346
1679940332.425331,-77.29781250359605,8.71651796082884,-79.96698451286383,12.79182529408006,80.1886444062091,7.771052574510245
1679940332.758611,-77.29781010057674,8.716517574665342,-79.97529719883684,12.79182529419873,80.18864440604276,7.771033617169809
1679940333.091842,-77.29780819957514,8.716517571943276,-79.98295288068566,12.791825294338858,80.18864440585881,7.771018827648505
1679940333.425056,-77.29780377455286,8.716518192686054,-79.98818967731287,12.791825294467415,80.18864440568508,7.771001509315543
1679940333.758592,-77.2977999318568,8.716517138230692,-79.99181171719452,12.79182529455919,80.18864440554732,7.770978463609762
1679940334.091757,-77.29779828168378,8.716514981091462,-79.9929112649973,12.791825294657297,80.1886444054033,7.77095620098843
1679940334.42497,-80.35004713408406,8.706436042663292,-79.78048683741784,12.791825294462019,80.18864440526313,7.77096883495333
1679940334.758206,-80.3500323421957,8.706434376982982,-79.78547140841864,12.791825294490138,80.18864440532796,7.770997096024038
1679940335.091491,-80.35002879453708,8.706438116292919,-79.78611572835948,12.791825294331774,80.18864440553035,7.771005352311616
1679940335.424813,-80.35002594743885,8.706437472059907,-79.79287722607019,12.791825294240502,80.1886444056984,7.771025923602692
1679940335.758142,-80.35002894610612,8.706438818171604,-79.79284665828814,12.791825294091486,80.18864440589854,7.771036600713128
1679940336.091417,-80.35003004197513,8.706441468948237,-79.78899421021542,12.791825293926875,80.1886444061023,7.771042672754636
1679940336.424612,-83.14183030854474,8.88470992493528,-80.7257721185303,12.791825293814389,80.1886444063452,7.771045422239586
1679940336.757967,-83.14183173403396,8.884709115486793,-80.72999801003361,12.791825293933039,80.18864440611453,7.771053070150683
1679940337.091319,-83.14183340865941,8.884710275231239,-80.73688725119376,12.791825294023536,80.18864440588594,7.771064971692153
1679940337.424648,-83.14182982149238,8.884710343715469,-80.7440298047509,12.791825294164372,80.18864440566028,7.77106884423455
1679940337.757849,-83.14182704889845,8.884707876807227,-80.75020826915477,12.791825294335165,80.18864440545596,7.771065884633654
1679940338.091063,-83.14182201387409,8.88470939424216,-80.7498198468835,12.79182529442937,80.18864440522547,7.771076982027531
1679940338.424541,-83.14182060522697,8.884709918296675,-80.75186760154271,12.791825294535315,80.18864440499436,7.7710865199192725
1679940338.757697,-83.14181866699451,8.884708206477486,-80.7586898820523,12.791825294694819,80.18864440477904,7.771086639270527
1679940339.091037,-83.14181567585426,8.884707076500222,-80.7674811638649,12.79182529484952,80.18864440456048,7.771088024064696
1679940339.424275,-83.14181281466108,8.884710841697112,-80.77006120896314,12.79182529488079,80.18864440435016,7.771106037802896
1679940339.75753,-83.1418104437145,8.884711625552415,-80.77290356599305,12.791825294986545,80.1886444041191,7.771115615695207
1679940340.090783,-83.14180756206203,8.884710638045787,-80.7733254248603,12.791825295133997,80.18864440389639,7.771118285932575
1679940340.424151,-83.14180409209153,8.884712291029627,-80.77022393997096,12.79182529523311,80.18864440366491,7.771128583926101
1679940340.757439,-83.1418031154323,8.884709930664092,-80.76946332024619,12.791825295387406,80.18864440344596,7.771129786334233
1679940341.09067,-83.14180231967168,8.884707779039564,-80.76952064184994,12.791825295541825,80.1886444032271,7.771130990713432
1679940341.423931,-83.1418034471424,8.884708561557472,-80.77324641888215,12.791825295635372,80.188644402997,7.771142247562234
1679940341.757291,-83.14180278387558,8.884711220500474,-80.77543989153634,12.791825295686905,80.18864440277731,7.771158263279439
1679940342.090643,-83.1417992115923,8.884713824749264,-80.77125943845344,12.79182529574099,80.18864440255567,7.771173852252645
1679940342.423825,-86.12086789280163,8.843712156695963,-80.28694813490924,12.791825295528609,80.18864440242875,7.771163080435381
1679940342.75709,-89.19026519858019,8.838622291802904,-80.16035742549762,12.791825295672043,80.18864440263731,7.771172746213105
1679940343.090532,-89.19026822511182,8.838619728082678,-80.16354491288207,12.791825295819416,80.18864440241322,7.771172434981325
1679940343.423751,-89.19027536410589,8.83861456705463,-80.15372475373782,12.791825295963793,80.18864440218708,7.771172555343889
1679940343.756993,-86.06378048962037,8.973051807795855,-77.22892999658511,12.7918252959252,80.18864440210125,7.77114511639844
1679940344.090337,-86.0637732401478,8.973046255895927,-77.23787508180716,12.791825296041369,80.18864440223201,7.771122954087837
1679940344.42358,-86.06376148186624,8.973045374404101,-77.24797684773542,12.791825296170877,80.18864440244654,7.771112458403681
1679940344.756936,-86.06375818935983,8.973051952799906,-77.25069238977603,12.791825296149609,80.18864440254575,7.771139594497425
1679940345.09014,-86.06375368276366,8.973051015805288,-77.26203833108406,12.79182529627099,80.18864440278448,7.771137163065668
1679940345.423513,-86.063757367205,8.973048121397452,-77.27660696215597,12.791825296382434,80.18864440302846,7.7711392162887245
1679940345.756642,-86.06375539906085,8.97305118756062,-77.27973332570583,12.791825296431469,80.18864440323313,7.771157512672141
1679940346.090023,-89.1429706172696,9.037057396283002,-78.87805789530664,12.791825296338367,80.18864440328255,7.771130621999218
1679940346.423196,-92.15671933304006,9.088159295883028,-79.64538990332937,12.79182529630722,80.18864440301469,7.771131084254297
1679940346.756523,-92.15672374908219,9.088155297411605,-79.6581374576467,12.79182529621132,80.188644403266,7.771132032603776
1679940347.089841,-92.15672171009392,9.088154250829405,-79.66792711045846,12.791825296122397,80.18864440351913,7.771134431661484
1679940347.423109,-92.15671932379543,9.088152526981398,-79.68018813048671,12.791825296030238,80.18864440377156,7.7711361335490885
1679940347.756406,-92.15671832289748,9.088153996408582,-79.68336623901719,12.791825295907746,80.1886444039965,7.771127309948459
1679940348.089753,-92.15671642927154,9.088158303144203,-79.67803309122685,12.791825295773203,80.18864440413198,7.771106815128792
1679940348.423086,-92.15671214503752,9.088165581176577,-79.66713919756914,12.791825295642083,80.1886444042235,7.771083388438135
1679940348.756274,-92.1567122906898,9.08816725156515,-79.65967837693178,12.791825295511948,80.18864440442731,7.771070698910319
1679940349.089551,-92.15671458142344,9.088163963394209,-79.66299100150272,12.791825295412657,80.18864440467732,7.771070030481432
1679940349.422964,-92.15671188577832,9.088160152962256,-79.66970890211374,12.791825295357391,80.18864440492612,7.7710795587240336
1679940349.756199,-92.15670935647161,9.088159187679084,-79.68036126218567,12.791825295262884,80.18864440517798,7.77108054242994
1679940350.089379,-92.15670623914232,9.0881581599937,-79.6923234679277,12.791825295176455,80.1886444054314,7.771083613807121
1679940350.422734,-95.199876000508,9.02674014483433,-78.58450302481921,12.791825295435,80.18864440548734,7.7710818832814015
1679940350.755954,-95.1998733030853,9.02674101635233,-78.58664365187994,12.791825295567602,80.18864440527007,7.771072598540105
1679940351.089267,-95.19987384447808,9.02674146955265,-78.58471725394095,12.791825295716471,80.18864440506195,7.771063875404856
1679940351.422583,-95.19987388296181,9.026740840529953,-78.57919559942252,12.791825295804546,80.18864440482594,7.7710535591243595
1679940351.75586,-95.19986895951135,9.026745894150467,-78.5768504730951,12.791825296066905,80.18864440478987,7.771053089345862
1679940352.089196,-95.19986623361785,9.026749586189064,-78.5772129810337,12.791825296286039,80.18864440464752,7.771047486226194
1679940352.4225,-95.1998593021596,9.02674949151957,-78.58606104054164,12.791825296325898,80.18864440440122,7.771036383073763
1679940352.755707,-95.19985617839538,9.026748175058906,-78.59945747744193,12.791825296390662,80.1886444041592,7.7710256017620125
1679940353.089095,-95.19985197581242,9.02674018304517,-78.62352806800205,12.791825296295704,80.18864440392898,7.7710145252766285
1679940353.422322,-95.1998430770606,9.02673749184812,-78.63597423414808,12.791825296166435,80.18864440371598,7.771003633303004
1679940353.75563,-98.26222441168194,9.102663079459445,-80.16816910694881,12.791825296196581,80.18864440344817,7.771002478625065
1679940354.088812,-98.26222945342721,9.102671916728378,-80.15810528856562,12.791825296189241,80.18864440351767,7.770974187904932
1679940354.422129,-101.36334745050523,9.125506636756384,-81.16701707613029,12.79182529610545,80.18864440357592,7.771001244802644
1679940354.755374,-101.36335228126853,9.125505223993041,-81.14445996172374,12.791825295978214,80.18864440338486,7.771016393440573
1679940355.08872,-101.36335470279394,9.12550220110964,-81.14961029040622,12.791825295940088,80.18864440314204,7.771028442868311
1679940355.422049,-101.3633315561262,9.12550665158282,-81.1713480721951,12.791825295894364,80.18864440290263,7.771040959504576
1679940355.755263,-98.24736922644091,9.022917719593641,-83.84910395440734,12.791825295636805,80.18864440288827,7.77103435070765
1679940356.088485,-98.24735997306216,9.022912778149218,-83.86938570966448,12.791825295801738,80.18864440305654,7.771020521001381
1679940356.421877,-98.24735667019364,9.022911647580806,-83.88327887397917,12.791825295851512,80.18864440330081,7.771031668953175
1679940356.755138,-98.24736125134082,9.022908968595432,-83.88534840084756,12.79182529585479,80.18864440352213,7.771048415380495
1679940357.088641,-101.34628790382081,9.045153793604978,-84.85189492364782,12.791825295855636,80.18864440368078,7.771024725993356
1679940357.421728,-101.34629092087407,9.045154936138607,-84.84605867952381,12.791825296067108,80.1886444035278,7.771018830579332
1679940357.754987,-101.34629062298427,9.045155497390905,-84.83627193348279,12.791825296240281,80.18864440333665,7.77101107387433
1679940358.088349,-101.34627659462106,9.045149983636902,-84.83661276207228,12.791825296086204,80.18864440313347,7.771002088042599
1679940358.421534,-101.34626758754162,9.04514483654139,-84.83523226473392,12.791825295824996,80.18864440317556,7.7710035224864775
1679940358.754967,-104.44973962861182,8.999927472025053,-83.1201581350713,12.791825296071595,80.18864440315859,7.77099301912425
1679940359.088082,-104.44973320710294,8.999926155249666,-83.1531328188618,12.791825296176276,80.18864440340442,7.770996401836313
1679940359.421463,-107.4210893468933,8.959459429618743,-82.70570539009934,12.791825296216178,80.18864440363011,7.770980972369585
1679940359.754763,-110.46288683539444,8.968249260365317,-82.8878131110814,12.791825296396198,80.18864440355053,7.771000637385921
1679940360.088085,-113.55471185697283,8.984140398363346,-83.50574577268864,12.791825296289549,80.18864440353299,7.770973895662126
1679940360.421281,-113.55471480733502,8.984141183015995,-83.4906340293752,12.79182529631112,80.18864440344528,7.770946299284372
1679940360.754602,-113.5547156468785,8.984141105285621,-83.48059159276387,12.791825296304175,80.18864440331511,7.770920655013837
1679940361.087863,-116.63434640881417,9.072400970700448,-85.40096616757063,12.791825296209408,80.18864440316499,7.770942617714292
1679940361.421123,-116.63434332459907,9.072399076128129,-85.41131375784713,12.791825296033783,80.18864440336512,7.7709397239243545
1679940361.754414,-116.63434023010596,9.072391438819064,-85.42427614845211,12.791825295966358,80.18864440361695,7.770947121512733
1679940362.087629,-116.6343372047809,9.072390434725172,-85.44551923091258,12.79182529579277,80.18864440381891,7.770944231716483
1679940362.421072,-119.64268758806854,9.026776152342059,-84.80211541790796,12.79182529603031,80.1886444038455,7.770956844669788
1679940362.754404,-119.64268799534744,9.026781483329168,-84.79906112771359,12.79182529625411,80.18864440397991,7.7709625070883055
1679940363.087594,-119.64268805862686,9.026787550229294,-84.80012589882848,12.791825296501596,80.18864440407033,7.770965970915919
1679940363.420914,-122.72527358283544,8.968130224839442,-83.24004210253396,12.791825296714602,80.18864440393331,7.770956948768002
1679940363.754059,-122.72527284442579,8.968124032208475,-83.238753095753,12.79182529681005,80.1886444041265,7.770974453480691
1679940364.087385,-122.72527246902101,8.968129016764609,-83.23477598733776,12.791825296769561,80.18864440403652,7.77100170231048
1679940364.42067,-122.72526955683209,8.968133332077162,-83.23232886597445,12.791825296755034,80.18864440399716,7.77103063564911
1679940364.754031,-122.725271297389,8.968131229294302,-83.23138767612264,12.79182529682554,80.18864440413404,7.771054643140994
1679940365.087319,-125.80883686457395,8.919280212027267,-81.84369602425213,12.791825296645209,80.1886444040216,7.771072277659184
1679940365.420527,-125.80883608894268,8.919282394760437,-81.84919635656455,12.791825296383209,80.18864440400388,7.771068517646627
1679940365.753872,-125.80883273960521,8.919281954946515,-81.85926054213003,12.79182529614419,80.18864440388978,7.771070820284193
1679940366.0871,-125.80882982560004,8.919283059571264,-81.86136442776557,12.79182529588367,80.18864440384863,7.7710681089318445
1679940366.420435,-125.80882691304744,8.919281349892634,-81.85980013046361,12.79182529565527,80.18864440371608,7.7710716273110645
1679940366.753703,-125.8088275486945,8.919281343785487,-81.85875399748669,12.791825295396798,80.18864440365972,7.771069930273805
1679940367.086925,-125.80882971236808,8.919282314996266,-81.8556780104432,12.791825295135151,80.1886444036377,7.7710661358130295
1679940367.420264,-128.85887592816533,8.916026150934808,-81.79895194336677,12.7918252953928,80.18864440358833,7.771070232867755
1679940367.753556,-128.8588707534322,8.916026039050788,-81.80269600316979,12.791825295640646,80.18864440368074,7.771067891137828
1679940368.086914,-128.8588699925372,8.916023134534635,-81.8088380148224,12.791825295855947,80.1886444038278,7.771061912740287
1679940368.420138,-128.85886872133258,8.916022607873746,-81.81572053367775,12.791825296111625,80.18864440389773,7.771061379875455
1679940368.753415,-128.85886769276127,8.916025822109969,-81.81395282627508,12.791825296359765,80.18864440383436,7.771068931314858
1679940369.086698,-131.92066634319983,8.868082861391292,-80.73781659129772,12.791825296349817,80.18864440356553,7.771066727068503
1679940369.41999,-131.9206638438345,8.868082264226189,-80.74254390137008,12.791825296239157,80.18864440349171,7.771092100107827
1679940369.753209,-131.92066289787576,8.868080941720114,-80.74414195717473,12.791825296116127,80.18864440343403,7.771117270709277
1679940370.086547,-134.9780999722232,8.92073299994997,-81.8730677771273,12.791825296085529,80.18864440366814,7.771103113455326
1679940370.419821,-134.9780986462627,8.920733701907928,-81.87569831873151,12.791825296340399,80.18864440363906,7.771110393715069
1679940370.753131,-138.06033350781215,8.887923710206525,-80.87886071087033,12.791825296397377,80.18864440337636,7.771112560530826
1679940371.086443,-138.06033458251684,8.887921954793004,-80.8779104527,12.791825296230826,80.18864440334029,7.7711349912964645
1679940371.419697,-138.06033384460773,8.887927069815404,-80.87900976425155,12.791825296032219,80.18864440350524,7.7711423697927655
1679940371.753027,-141.1458985198054,8.868783779457486,-80.2349329542646,12.791825296155341,80.18864440337747,7.771120462552124
1679940372.086381,-141.14589666144602,8.868781636269897,-80.23566035370791,12.791825296137077,80.18864440345826,7.771092589236156
1679940372.419633,-141.14588988508336,8.868780696227674,-80.24137773878772,12.791825296105184,80.18864440355865,7.7710656325976215
1679940372.752771,-144.2101800093284,8.860871235183064,-80.06119405578907,12.791825296019406,80.18864440354513,7.771093304487026
1679940373.086106,-144.21017524682458,8.860873724345801,-80.07491364645323,12.79182529598934,80.18864440361192,7.771121489189428
1679940373.419385,-144.21017074862914,8.860873519631157,-80.07042087153755,12.791825295994624,80.18864440361853,7.771150765431883
1679940373.752753,-144.21017285772783,8.860878719049346,-80.0579141083998,12.79182529588909,80.18864440380382,7.771168566174862
1679940374.086068,-144.21017686801977,8.860877832038573,-80.04532868005347,12.79182529586752,80.18864440386179,7.771197074689011
1679940374.419213,-147.2846692772313,8.840527725140205,-79.46668161732745,12.791825295869602,80.1886444038759,7.7711678251136025
1679940374.752542,-147.28466602371975,8.84052530373983,-79.47794576139519,12.791825295679688,80.18864440394974,7.771149055917758
1679940375.085822,-147.28465595233774,8.840520615622609,-79.49322817876545,12.791825295491567,80.1886444041332,7.77114375943728
1679940375.419075,-147.28464729008394,8.840519498785088,-79.51540339876117,12.791825295302736,80.18864440421422,7.771125207024142
1679940375.752385,-147.2846396949033,8.840520689564178,-79.53665919207583,12.791825295145209,80.18864440422784,7.771101709620631
1679940376.085733,-147.28463734298933,8.840522367207763,-79.54510249215565,12.79182529505238,80.18864440415048,7.771075595262293
1679940376.418951,-150.33819027244937,8.830708294093748,-79.32998918000754,12.791825295115158,80.18864440408187,7.7711030590583725
1679940376.752235,-150.33819152387832,8.830707971609112,-79.31376622703571,12.791825295286895,80.18864440410756,7.77112517747782
1679940377.085559,-150.3381947420058,8.83070764740184,-79.3055471863018,12.791825295425241,80.18864440418896,7.771148537346208
1679940377.418919,-150.3381990198915,8.83070557668388,-79.30057945559803,12.7918252955894,80.18864440423681,7.771170924014487
1679940377.752111,-153.3895961920884,8.838588771422698,-79.4852093361982,12.791825295471494,80.18864440433872,7.771147145885277
1679940378.085416,-156.37580871675542,8.818519513743745,-79.23932488944591,12.791825295488911,80.18864440424507,7.771174548462989
1679940378.418793,-158.57023490853646,9.085900243778717,-79.76284517821878,12.791825295409545,80.18864440442916,7.771155019113809
1679940378.751994,-161.5775952965895,8.865683247973234,-77.7199714821083,12.791825295553558,80.18864440431264,7.7711339473835
1679940379.085314,-161.57759238833268,8.8656816176391,-77.73709651564869,12.791825295705939,80.18864440453149,7.771136978708562
1679940379.418818,-161.57758892280776,8.86567745326714,-77.75355534274114,12.791825295861303,80.18864440474844,7.771139754963661
1679940379.751907,-161.57758926353046,8.865678267911473,-77.75319423544308,12.791825295928614,80.18864440497399,7.771153998183508
1679940380.085102,-161.57759298799175,8.86568330293315,-77.74056788162588,12.79182529587304,80.1886444051398,7.771176270247777
1679940380.418502,-161.57760067326035,8.865680781563412,-77.72475365072357,12.791825295966166,80.18864440536663,7.771188323772305
1679940380.751676,-161.57760337681657,8.865681654967021,-77.7118317762675,12.791825296030133,80.18864440558926,7.771203279466848
1679940381.085121,-161.5776034495877,8.865683936247846,-77.70909743418242,12.791825296040473,80.18864440579243,7.771222514550603
1679940381.4183,-161.57759305130872,8.865682259121035,-77.71315025198678,12.791825296236285,80.18864440596352,7.771215902925951
1679940381.751526,-161.57758002829533,8.865683837005632,-77.72333273266148,12.791825296181608,80.18864440612508,7.771238570474581
1679940382.08488,-161.5775826285153,8.865684666308193,-77.72687424027008,12.791825296235004,80.18864440634684,7.771254170861791
1679940382.418156,-161.57757174198633,8.865678965701285,-77.73846548417822,12.79182529643565,80.18864440640421,7.771236102778189
1679940382.751451,-161.57756265435773,8.865671751990659,-77.75755729031515,12.791825296643225,80.18864440652783,7.7712238364646415
1679940383.084664,-164.6962011762411,8.814173043911811,-75.47231502613376,12.791825296405651,80.18864440645862,7.771213313907235
1679940383.417953,-164.69619891287468,8.814174687254605,-75.47594680647411,12.791825296374094,80.18864440623817,7.771229834005809
1679940383.751296,-164.69620461277106,8.814179419269852,-75.46739768575787,12.791825296200876,80.18864440606546,7.771241631345965
1679940384.084656,-164.69620520141862,8.814174849790913,-75.4596751275221,12.791825296201594,80.18864440584466,7.77125846166501
1679940384.41782,-164.69620298496991,8.814179874655071,-75.44668562898522,12.791825295955373,80.18864440575774,7.771263652230858
1679940384.751159,-164.69619891581405,8.81418398912608,-75.44834492373906,12.791825295857535,80.18864440555014,7.771278907897828
1679940385.084407,-164.69618393702586,8.814165621781283,-75.46699433302452,12.791825295998835,80.18864440536748,7.771293751867637
1679940385.417672,-164.6961721128277,8.814160097473962,-75.4870751163275,12.791825296218715,80.18864440525361,7.771304401402817
1679940385.750986,-164.69616428156692,8.814165495062397,-75.50042962313542,12.791825296112581,80.1886444050464,7.771319030406335
1679940386.084374,-164.6961491582677,8.814170597882368,-75.52678188999771,12.791825296054522,80.18864440482751,7.771334901064998
1679940386.417605,-164.69614752556603,8.81417432224438,-75.54846692619611,12.791825295972073,80.18864440461222,7.771350011364121
1679940386.750906,-164.69614551898619,8.814176737038828,-75.54994798789161,12.79182529588614,80.18864440439782,7.771365033932483
1679940387.084144,-164.69614285728832,8.814180506432857,-75.54762426600249,12.791825295768724,80.18864440419235,7.771378874144549
1679940387.417411,-164.6961398493521,8.814178282649511,-75.53794247894817,12.791825295779772,80.18864440397323,7.771395916653709
1679940387.750836,-164.6961347486257,8.814181639171121,-75.53384454701143,12.79182529567951,80.18864440376298,7.771410539042017
1679940388.084017,-164.6961336879892,8.814184696601187,-75.53119033920005,12.791825295553862,80.18864440356128,7.771424145247267
1679940388.417617,-164.6961319378379,8.814187055304563,-75.5263216437646,12.79182529546007,80.18864440334956,7.771439038010128
1679940388.750637,-164.69615850473963,8.81416120068891,-75.49240255515564,12.791825295499365,80.18864440313402,7.771456110014061
1679940389.083806,-164.69614495573356,8.814156072627553,-75.51569069950482,12.791825295728742,80.18864440303706,7.771466270369362
1679940389.417134,-164.69616096056012,8.814141430251038,-75.50821246076258,12.791825295796766,80.1886444028278,7.771483158170841
1679940389.750559,-164.69615749008867,8.81414353856224,-75.52034852844427,12.79182529575951,80.18864440260717,7.77149950057907
1679940390.083774,-164.69613873015138,8.814156498717987,-75.5358847897691,12.791825295538152,80.18864440247364,7.771506434044402
1679940390.417029,-164.69614254985194,8.814160000753517,-75.53044460434374,12.791825295378846,80.188644402288,7.771518314574278
1679940390.750301,-164.6961440325141,8.814159196308157,-75.51695094400404,12.791825295326882,80.18864440206903,7.771534425854967
1679940391.083587,-164.69614594057754,8.814157475531054,-75.51023410342316,12.791825295298157,80.18864440184834,7.771550967821794
1679940391.41693,-164.69614409156043,8.81415528212145,-75.51458750513514,12.791825295351648,80.18864440163523,7.771567928100993
1679940391.750336,-164.6961370246355,8.814147344771596,-75.51272993707074,12.791825295564491,80.188644401777,7.771559765560483
1679940392.083471,-164.69613095644917,8.814146282078324,-75.5311053776486,12.791825295620693,80.18864440156472,7.771576738316548
1679940392.416646,-164.69612805045645,8.814145932514494,-75.54120183420832,12.791825295620699,80.18864440134418,7.771593607831056
1679940392.749961,-167.748861653817,8.828858621510985,-75.88359041989702,12.791825295814489,80.18864440120502,7.771580566059581
1679940393.083237,-167.74886012819454,8.828860694667299,-75.88589618948963,12.791825295973188,80.18864440140908,7.771572894257614
1679940393.416569,-167.7488607099175,8.82885973356716,-75.88655992566879,12.791825296050336,80.18864440163229,7.771558828676561
1679940393.749863,-167.74886050059578,8.828858635634406,-75.88896022124052,12.791825296132348,80.18864440185541,7.771545090540088
1679940394.083156,-170.82546215478717,8.856010988857902,-76.69397175036215,12.791825295869522,80.1886444018244,7.771543977131783
1679940394.416385,-170.82546176154443,8.856011866438516,-76.68844063792871,12.791825295714112,80.18864440161516,7.771537177310988
1679940394.749681,-170.82546028945507,8.856009501391112,-76.69343557629438,12.791825295591247,80.18864440138996,7.771545858474598
1679940395.083048,-173.89510017233698,8.823603117462504,-75.86619124770901,12.791825295531897,80.18864440113052,7.771541234262043
1679940395.41632,-173.89509430688497,8.823603548503138,-75.87767211962331,12.791825295580432,80.188644401353,7.771525563213528
1679940395.74957,-173.89509179267145,8.823607223642425,-75.88076923277856,12.79182529579981,80.18864440150405,7.77152557856967
1679940396.082916,-176.95171606300258,8.751632795191856,-74.48037750534087,12.791825295596972,80.1886444014488,7.771507734792192
1679940396.416142,-176.9517160072849,8.751633045274538,-74.47933753252676,12.791825295658228,80.1886444012531,7.77152672263871
1679940396.749384,-176.9517162026242,8.751636762612607,-74.47266035734896,12.791825295593503,80.18864440113927,7.771552295339733
1679940397.082967,-176.95171925127133,8.751640345248045,-74.46525115121963,12.791825295550474,80.18864440100793,7.771577435486652
1679940397.416,-176.95173257734373,8.75163656432897,-74.47966621726917,12.791825295622793,80.18864440081121,7.771595813893827
1679940397.749281,-176.95174353860787,8.751628762391409,-74.50748193285014,12.79182529573509,80.18864440060558,7.771610138332326
1679940398.082568,-176.95174770356928,8.751625407390115,-74.53437587904311,12.79182529585384,80.18864440039864,7.771623576547922
1679940398.415919,-176.95175001564,8.75162486293334,-74.55149218119429,12.791825295924067,80.18864440019904,7.771641684838298
1679940398.749188,-176.9517595452393,8.751622808297359,-74.55996237863933,12.791825295980681,80.18864440000175,7.7716606572255715
1679940399.082485,-176.95176873101101,8.75162063436698,-74.5650761315897,12.791825296043362,80.18864439980157,7.771679031040155
1679940399.415678,-176.95177653588087,8.751620170413437,-74.55040432032445,12.791825296045966,80.1886443996248,7.771701156177915
1679940399.749005,-173.91686674190845,8.795397221308459,-73.75201842583914,12.791825295817528,80.18864439954375,7.771689246958373
1679940400.082297,-173.91685873217187,8.795398144455056,-73.74299310380734,12.791825295968287,80.18864439933796,7.771698223192514
1679940400.415557,-173.91685092294748,8.795398609314557,-73.74530986414405,12.791825296107197,80.1886443991622,7.771714275380558
1679940400.748885,-173.91684041779712,8.795399476441233,-73.7495271018631,12.791825296256727,80.18864439896754,7.771726008674619
1679940401.082096,-173.91683138919387,8.795402043899328,-73.75290673035981,12.791825296414038,80.18864439875317,7.771729661761237
1679940401.415444,-173.91681953429065,8.795405038978837,-73.74635706082496,12.791825296568335,80.1886443985402,7.771735319226306
1679940401.748702,-173.9168120578858,8.795408050123463,-73.73716149118673,12.79182529672253,80.1886443983209,7.771735291599501
