Timestamps,Roll_N,Pitch_E,Yaw_U,Latitude,Longitude,Altitude
1679940348.545908,1.52,1.93,10.48,12.791218758,80.189743042,-43.61
1679940348.879348,1.5200194415658845,1.9300144160031292,10.455240809956488,12.79121875775273,80.1897430419211,-43.60999397512674
1679940349.212076,1.520014251820369,1.9300071956877232,10.457422561212116,12.791218757907208,80.18974304192913,-43.610017747703594
1679940349.545457,-1.500519327809591,1.8533253763097024,11.594976564690253,12.791218757927703,80.18974304166044,-43.61001906082515
1679940349.879053,-1.5005313371056972,1.8533230606085156,11.627252821999127,12.791218757705145,80.18974304159272,-43.61000499903159
1679940350.212364,-1.5005445354666322,1.8533206785024399,11.659871288226348,12.791218757478454,80.18974304152573,-43.60999172800054
1679940350.545656,-1.5005547175025444,1.8533220822351468,11.663831700283811,12.791218757223778,80.18974304146117,-43.60998785338398
1679940350.878948,-1.500558508967702,1.853324192571964,11.662086248553312,12.791218757161484,80.18974304149344,-43.61001610394889
1679940351.212258,-1.500554573600398,1.8533308976824803,11.652394485187736,12.791218757224227,80.18974304155454,-43.61004377765471
1679940351.54544,-1.5005419945287308,1.8533281528080583,11.660107995048943,12.79121875745745,80.18974304162595,-43.61005527517709
1679940351.878264,-1.500534876921983,1.853324475655914,11.666793240181551,12.791218757685959,80.18974304169814,-43.61006782514716
1679940352.211683,-1.5005312959212975,1.8533323672499953,11.654394125413017,12.791218757756608,80.18974304176115,-43.61009521338004
1679940352.54489,-1.5005209162138988,1.853334199140595,11.648808111393095,12.7912187579658,80.18974304183743,-43.61011114313135
1679940352.878114,-1.500514961906593,1.8533315493426767,11.654447198398527,12.79121875820684,80.18974304190785,-43.61012055015473
1679940353.211506,-1.5005187217994707,1.853336255398538,11.641334173791144,12.79121875814607,80.18974304193935,-43.610148852288866
1679940353.544686,-1.5005206610917743,1.8533363193166235,11.63230019467968,12.79121875832825,80.18974304201572,-43.610168423609686
1679940353.878038,-1.5005182794815708,1.85333060330433,11.6341048973901,12.791218758585623,80.1897430420782,-43.61016954005192
1679940354.211284,1.6287202025266856,1.902846839635787,14.276369876145518,12.79121875852795,80.189743041997,-43.61014234486552
1679940354.544564,1.62871238180136,1.9028599673214084,14.251497502258605,12.79121875842361,80.18974304201875,-43.61016916189477
1679940354.877892,4.73567854543378,1.855847000087836,12.396429290823868,12.791218758344861,80.18974304217882,-43.61014725066045
1679940355.21128,4.735672112502356,1.8558243972374204,12.436000277326404,12.791218758600516,80.18974304220063,-43.61015449753482
1679940355.544509,7.84650352633907,1.7689683347898524,10.012275243610242,12.791218758429297,80.18974304239636,-43.61016139458087
1679940355.877747,4.711492139213267,1.8644470879869408,7.033998682201565,12.791218758224655,80.18974304242874,-43.61017964595872
1679940356.210915,4.71149130747041,1.8644587490838174,7.04712880367628,12.791218757981753,80.18974304246049,-43.610168511443554
1679940356.544273,7.803332607273178,1.8703328833064805,7.305335804463643,12.791218757761925,80.18974304243204,-43.6101845424138
1679940356.877614,10.921223482925967,1.8314676524512967,5.259851558459758,12.791218757729936,80.18974304243278,-43.61015546674125
1679940357.210861,10.921226402608816,1.831472615782627,5.240605460528583,12.791218757851517,80.18974304249578,-43.6101805722853
1679940357.544158,10.921230761877993,1.831477491582998,5.222044157079986,12.791218757988702,80.18974304256064,-43.61020461705313
1679940357.877398,14.026638772609868,1.7832986606370549,3.360674800781353,12.791218757972365,80.18974304281606,-43.61019536372612
1679940358.210682,14.026638298117156,1.783291417271879,3.368472913098697,12.791218758038458,80.18974304276475,-43.610223176029926
1679940358.544011,14.026637137328482,1.7832958971576665,3.391756740324595,12.791218757805083,80.18974304273286,-43.61023657009662
1679940358.877325,17.13386227710916,1.8595208535665662,5.70557105117347,12.791218757622287,80.18974304253773,-43.61023621391082
1679940359.210606,17.133858483348085,1.8595197477675278,5.711446381438583,12.79121875770706,80.189743042612,-43.610262765467404
1679940359.543849,17.133859459204295,1.8595214285531163,5.70614497263274,12.791218757733324,80.18974304268126,-43.61029092521608
1679940359.877152,17.1338622766395,1.8595277082752968,5.679204765223665,12.791218757675487,80.18974304273456,-43.61031891606688
1679940360.210377,17.133866364636198,1.8595311581178429,5.654338097184125,12.791218757717438,80.1897430428059,-43.61034678074502
1679940360.543851,17.133868119892533,1.8595301380874172,5.651879194599441,12.791218757850451,80.18974304288285,-43.6103706907539
1679940360.877059,20.239780913630344,1.8032596970954995,3.649867911674324,12.791218757794306,80.189743043145,-43.61037374874601
1679940361.210264,20.239776421619144,1.8032531549362665,3.660354964433439,12.791218757899257,80.18974304310565,-43.610400300199494
1679940361.543605,20.23977624290094,1.8032542080496294,3.6800365388267937,12.791218757668883,80.18974304305735,-43.61041375169707
1679940361.876819,20.239768016610952,1.8032583812880953,3.69897764435011,12.791218757415933,80.18974304301709,-43.61042122090651
1679940362.210084,20.23976441492956,1.80325477118604,3.696709023225443,12.791218757371691,80.18974304295918,-43.61044940656867
1679940362.543554,20.239768072285308,1.8032555334918818,3.682271941873993,12.791218757188496,80.189743042896,-43.6104694113518
1679940362.876767,20.239773350987782,1.803263876963471,3.6815766334584548,12.791218756931523,80.18974304285388,-43.61047478612011
1679940363.210623,20.239769258691,1.8032540455691692,3.693860978494151,12.79121875695892,80.18974304280347,-43.610503400600436
1679940363.543244,20.23976606411442,1.8032465966395328,3.708196780723662,12.791218756977948,80.18974304275243,-43.61053208670183
1679940363.876607,20.239754453443666,1.8032465798543915,3.7279154637359473,12.79121875671506,80.18974304272794,-43.61052983265112
1679940364.209807,20.239753034567205,1.8032469392127854,3.7500459960768975,12.79121875650473,80.18974304267424,-43.61054664110191
1679940364.543176,20.239742179262333,1.8032483829408368,3.7588996869892513,12.791218756242019,80.18974304264064,-43.61054656356765
1679940364.876507,20.239742351522274,1.803254722605374,3.7699449991428096,12.791218755979758,80.18974304260506,-43.610547681021195
1679940365.209685,20.23973594397375,1.803260813168455,3.7553266881791116,12.791218755727643,80.18974304258069,-43.61053913446188
1679940365.543103,20.23973551975656,1.803257368016993,3.7314909718566676,12.791218755776022,80.1897430425378,-43.610567552211336
1679940365.876311,23.353831147207426,1.7728472417997074,2.069124249078709,12.791218755723978,80.18974304254438,-43.610596262957166
1679940366.209453,23.35383006671782,1.772844907146449,2.096520615187763,12.791218755523834,80.18974304260325,-43.610578182396694
1679940366.542866,23.35381554604647,1.7728439596070718,2.1196755715720137,12.791218755608204,80.18974304261242,-43.6105504361616
1679940366.876204,20.32068341187159,1.299203313175346,4.820967884418143,12.79121875572031,80.18974304260692,-43.61057696489017
1679940367.20944,20.320681664190708,1.2992063670292122,4.828280780900004,12.791218755542078,80.18974304266442,-43.610556223638376
1679940367.542646,20.32068137366884,1.2992067220996355,4.819499416880398,12.791218755295315,80.18974304273381,-43.610548741952066
1679940367.875961,20.320684782626273,1.2992070474003299,4.8062431499598555,12.79121875504378,80.18974304280256,-43.61054346158129
1679940368.209312,20.32068734722166,1.299203575397054,4.804287275028874,12.791218754793837,80.18974304287111,-43.61054962524415
1679940368.542616,20.320683382820565,1.299198102441829,4.80842106842562,12.7912187545773,80.1897430429296,-43.61056523886178
1679940368.875825,20.320681720250683,1.2991996472708132,4.817889403704253,12.791218754345815,80.18974304300036,-43.61055327327422
1679940369.209179,20.32067910906663,1.2992021836293277,4.812791903149651,12.791218754168233,80.18974304305515,-43.61053237645808
1679940369.542334,20.320675626932708,1.2992055273094911,4.810680145334546,12.791218754032812,80.18974304309943,-43.61050766997968
1679940369.875782,20.320677777858876,1.2992036252747932,4.820447841139439,12.791218753781452,80.18974304317418,-43.61050332836079
1679940370.208931,20.32067296110792,1.2992038058458413,4.831609384049757,12.791218753570123,80.18974304324087,-43.61048723713194
1679940370.542296,20.320671614954687,1.299201613213791,4.839890795877424,12.791218753406106,80.18974304329534,-43.610465016636894
1679940370.87562,20.320668676645113,1.299196913397215,4.8437285686984755,12.791218753221465,80.18974304334145,-43.61048540346776
1679940371.208857,20.320666980337222,1.2991922824643563,4.855644236484999,12.791218752970467,80.18974304341363,-43.61049045836646
1679940371.542074,20.32066899073182,1.2991924393609728,4.862841468071184,12.791218752730886,80.18974304348635,-43.610480805819165
1679940371.875409,20.32066953231843,1.2991947455626711,4.855884018396604,12.791218752511181,80.18974304355197,-43.61046609378057
1679940372.208647,20.320665843335096,1.2991913087272806,4.846761515741396,12.791218752265939,80.18974304361524,-43.61047473751359
1679940372.541983,20.32066576117696,1.2991932442360323,4.848004361783959,12.791218752051844,80.18974304368113,-43.61045905808499
1679940372.875336,20.32066490011832,1.299195064502424,4.847706418762515,12.791218751879397,80.189743043737,-43.61043767587647
1679940373.20855,20.320661670116564,1.2991884417358774,4.854001967699272,12.79121875166411,80.18974304379348,-43.61045358557595
1679940373.541856,20.32065591414932,1.299186782961406,4.858693247404167,12.791218751411389,80.18974304386708,-43.610450047196444
1679940373.875114,20.32065414198795,1.2991890708107334,4.864417177607438,12.791218751227765,80.18974304392732,-43.610429982103156
1679940374.208451,20.32065617055548,1.2991901689311185,4.860822965971365,12.791218751003546,80.18974304399464,-43.610416224069496
1679940374.541617,20.32065480622654,1.2991903540825513,4.857151559783037,12.791218750772229,80.18974304406322,-43.61040407044044
1679940374.874986,20.320656789309655,1.2991925354541212,4.8585504985033365,12.791218750563587,80.18974304412826,-43.610387476852836
1679940375.208282,20.320658146334235,1.2991930470640705,4.8579219188195255,12.791218750330156,80.18974304419794,-43.61037590669809
1679940375.54152,20.320656757139457,1.2991935224309372,4.858998687317778,12.791218750080272,80.1897430442705,-43.61037027590006
1679940375.87487,20.320656419665525,1.299193833007249,4.858796770526644,12.791218749833526,80.1897430443424,-43.61036307301994
1679940376.208114,20.320655112523088,1.2991933676049308,4.8560472041372105,12.791218749587989,80.18974304441349,-43.61035529141276
1679940376.541367,20.320653204359832,1.2991924617112407,4.861588904708698,12.791218749346951,80.18974304448604,-43.61034607829252
1679940376.874647,20.320647462306223,1.2991905988982604,4.866399258754765,12.79121874911087,80.18974304455763,-43.61033533516493
1679940377.207986,20.320644178808323,1.299187278598746,4.8749284724967605,12.791218748858563,80.18974304463217,-43.610331673698234
1679940377.541504,20.320644551017853,1.2991889837263961,4.881265421883884,12.791218748650072,80.18974304469887,-43.610315136375554
1679940377.874546,20.320644161997972,1.2991892159505578,4.8807986110550114,12.791218748415146,80.18974304476926,-43.610303994987426
1679940378.207866,23.39472389129449,1.3365870327653964,5.903231794351866,12.791218748277824,80.18974304488002,-43.61028202849948
1679940378.541107,23.39472080788838,1.3365864753451535,5.907267660485911,12.79121874829716,80.18974304482006,-43.610310506404446
1679940378.87447,23.39471595751498,1.336580194433474,5.911794392643539,12.791218748502653,80.18974304476502,-43.61032798429544
1679940379.207816,23.39471584749694,1.336579709854044,5.917420463197932,12.791218748541937,80.18974304470356,-43.61035617278532
1679940379.540899,23.39471331893647,1.3365810889631369,5.919562602782955,12.79121874847406,80.18974304465262,-43.610383940032015
1679940379.874189,23.394709560958713,1.3365803960951748,5.91884133483705,12.791218748488726,80.1897430445928,-43.61041245612113
1679940380.207568,23.3947067488898,1.3365778915387216,5.916485722241325,12.79121874861473,80.18974304453113,-43.61043733250871
1679940380.540825,23.394706560617447,1.3365765068492623,5.913603335863926,12.791218748699112,80.18974304446878,-43.610464260406026
1679940380.874185,23.394706319623488,1.3365791748265912,5.912299747076988,12.791218748628694,80.18974304441812,-43.61049195603165
1679940381.207408,23.394705659666602,1.3365822083383088,5.909897467968483,12.791218748548788,80.18974304436885,-43.61051936426482
1679940381.540667,23.3947065263659,1.3365782808295281,5.918258581903632,12.791218748660784,80.18974304430544,-43.61054499994908
1679940381.873938,23.394706327296824,1.3365778094279215,5.9276110719704835,12.791218748677483,80.18974304424528,-43.61057349310708
1679940382.207503,23.394702090755498,1.3365802337987422,5.927162819247541,12.791218748529817,80.18974304420834,-43.61059747271441
1679940382.540542,23.39470150255411,1.3365823503847805,5.924072332633643,12.79121874846184,80.18974304415674,-43.610625222840085
1679940382.873955,23.394701934604292,1.3365820045726962,5.923950046329395,12.791218748494128,80.18974304409575,-43.61065353068123
1679940383.207165,23.39470077814051,1.336578029530792,5.925012337349972,12.79121874864097,80.18974304403476,-43.61067698888928
1679940383.540314,23.394697234911884,1.3365754548690696,5.929566955811332,12.791218748765298,80.18974304397221,-43.610701942708026
1679940383.873648,23.394690151711078,1.3365742653863286,5.931174782663978,12.791218748720611,80.1897430439178,-43.610730204738495
1679940384.206891,23.394687473709872,1.336574459495374,5.9376317283237885,12.791218748700592,80.1897430438607,-43.610758746483356
1679940384.54041,23.39468394730048,1.3365722897268126,5.94660700688045,12.791218748776327,80.18974304379745,-43.610785961927775
1679940384.873492,23.394680561611846,1.3365715479992402,5.950399490011015,12.791218748809047,80.189743043736,-43.61081425340147
1679940385.207112,23.394682678583923,1.3365732630898515,5.946735827919741,12.791218748785044,80.18974304367862,-43.610842752214936
1679940385.540085,23.394685715737836,1.3365791454451885,5.936077047451976,12.791218748676878,80.18974304363172,-43.61086899819519
1679940385.873449,23.394684863058362,1.3365776350175338,5.932707008142216,12.791218748717029,80.18974304357033,-43.61089717143203
1679940386.206654,26.484471874530136,1.2878329170741236,4.4277857044013755,12.7912187486805,80.1897430437806,-43.610915074250606
1679940386.540023,26.484470149686285,1.2878296266128122,4.43188929301794,12.791218748447925,80.18974304385628,-43.610926406456414
1679940386.873241,29.55273061288482,1.3238697635743892,5.3619008046007695,12.791218748263939,80.18974304400055,-43.61091232178328
1679940387.206523,29.552725139922423,1.323868248828654,5.3757986393772645,12.791218748362533,80.18974304394172,-43.61093874636209
1679940387.539842,29.552719396037794,1.323868446644547,5.389922196923203,12.791218748385276,80.18974304389556,-43.61096749731468
1679940387.873065,32.58014302548743,1.3578997877541958,5.98453678673579,12.791218748440077,80.18974304389393,-43.61099615477796
1679940388.206466,32.580144302378336,1.3579000648956359,5.984576658387464,12.791218748500155,80.18974304394334,-43.61096813726011
1679940388.539822,35.64609753563432,1.3574278001245574,5.977720674737486,12.791218748548879,80.18974304388112,-43.610940149288574
1679940388.873031,35.6460992675126,1.3574272653568304,5.970201524129068,12.791218748530502,80.1897430438277,-43.610968789476196
1679940389.206242,35.646100413268485,1.357425836993881,5.966616272865223,12.79121874852422,80.18974304377363,-43.61099747840532
1679940389.539641,35.646100375700414,1.357425877288214,5.965067754643384,12.79121874844998,80.1897430437262,-43.611025119633986
1679940389.872767,35.6461014643984,1.3574283084521563,5.961063462470566,12.791218748326205,80.18974304368588,-43.611050639754474
1679940390.20603,35.64610152622971,1.3574277943773976,5.961119337414912,12.79121874828439,80.18974304363506,-43.6110790325502
1679940390.539448,35.64610085670342,1.3574248107050206,5.961703677521318,12.791218748350149,80.18974304357799,-43.61110672065241
1679940390.872636,35.64610036191733,1.3574228881057822,5.96822935392069,12.791218748317165,80.18974304352646,-43.61113524052901
1679940391.206003,35.64609354146565,1.3574228737921914,5.982761296467482,12.791218748176009,80.18974304349172,-43.61115973294934
1679940391.539266,35.64608716310303,1.357420747492204,5.996982966124304,12.791218748091858,80.18974304344627,-43.61118706279158
1679940391.872448,35.64608402965319,1.3574211467260047,5.999661236133056,12.79121874795404,80.189743043408,-43.61121172532728
1679940392.205751,35.646082231038555,1.357425352792468,5.997830805136161,12.791218747746843,80.1897430433858,-43.611229800077645
1679940392.539154,35.64608440660722,1.357425953150162,5.989807280615285,12.791218747646186,80.18974304334023,-43.6112564356806
1679940392.872356,35.64608496407271,1.3574236514640423,5.982519755930733,12.79121874766701,80.1897430432845,-43.61128500136788
1679940393.205629,35.64608454081029,1.3574220915386814,5.978193605290388,12.791218747662791,80.18974304323008,-43.61131368731463
1679940393.538916,35.6460832888827,1.3574224635078045,5.979846290044942,12.791218747533343,80.18974304319092,-43.61133888276671
1679940393.872297,35.64608088481338,1.3574223280327005,5.985578890919895,12.791218747432225,80.18974304314739,-43.61136553836996
1679940394.205527,35.646078623976564,1.3574200332207476,5.99340357554868,12.791218747420196,80.18974304309353,-43.61139420916676
1679940394.538755,35.646074838991446,1.3574197139876878,6.0009059284985415,12.791218747320348,80.1897430430495,-43.61142091255175
1679940394.872151,38.72908279190056,1.3920981300779218,7.080233229599338,12.791218747242985,80.18974304322694,-43.611441247864946
1679940395.205341,38.72907880782384,1.3921016292059665,7.073770582026076,12.791218747442505,80.18974304323218,-43.61146049643687
1679940395.538619,38.72907554963074,1.3921008996871924,7.06674379758451,12.79121874769072,80.18974304327698,-43.61145153545577
1679940395.87188,38.72907499701104,1.3920974677164377,7.074667465870394,12.791218747926079,80.1897430433204,-43.61143897306038
1679940396.205379,38.7290706186287,1.392095824548227,7.086940241170811,12.791218748170724,80.18974304336133,-43.611428690423
1679940396.538493,38.72906872939967,1.3920946540180328,7.093006708873599,12.791218748427287,80.18974304340047,-43.61142283041695
1679940396.871858,38.72906543816332,1.3920943695766144,7.0915329199590955,12.79121874868951,80.18974304343686,-43.61142192792969
1679940397.20511,38.729067796417404,1.3920968248654761,7.0933103462973275,12.791218748947795,80.18974304346418,-43.61142764671623
1679940397.538385,38.72906993156588,1.3920994799823956,7.090110177994394,12.791218749208953,80.189743043496,-43.61143101705452
1679940397.871688,38.72906664526128,1.3920983948198211,7.084059716961106,12.791218749458485,80.18974304354055,-43.61142250206415
1679940398.204914,38.729067614562375,1.3920978035348812,7.083919465257077,12.791218749711167,80.18974304358261,-43.61141503669374
1679940398.538247,41.79231800809423,1.3634971077096742,6.39919168673337,12.791218749926417,80.1897430436823,-43.611401856427385
1679940398.871523,41.79231627956284,1.3635005227738517,6.403651766463154,12.791218749664196,80.18974304366967,-43.61140567366462
1679940399.204754,41.79231252139083,1.3635037037567233,6.408130192697168,12.791218749399482,80.18974304366418,-43.611405623003606
1679940399.538092,41.79230895664722,1.3635034685093577,6.414071624687682,12.791218749176846,80.18974304362997,-43.61142103695954
1679940399.871408,41.79230869184193,1.3635030128890206,6.422467227097379,12.79121874898714,80.18974304358802,-43.61144095689119
1679940400.204668,41.79230829612346,1.3635019611430979,6.4269685933240135,12.791218748816656,80.18974304354184,-43.61146279917753
1679940400.537944,41.79230594582716,1.3634977544822706,6.420807341658861,12.791218748791763,80.18974304348622,-43.611491328548624
1679940400.871295,41.79230484772488,1.3634945960887657,6.407376987908556,12.791218748772785,80.18974304343055,-43.611519911460014
1679940401.204546,44.88356018527121,1.3212343130968764,5.025558486868084,12.791218748711922,80.18974304341437,-43.61154836345149
1679940401.537761,44.883555597799095,1.3212299507697323,5.054970054705177,12.79121874853218,80.1897430434793,-43.611528044299554
1679940401.871037,44.88354517780139,1.3212315821793097,5.081973397864518,12.791218748700038,80.18974304345124,-43.61150559848707
1679940402.204335,44.88353674263467,1.321231651594653,5.095386618023294,12.791218748832918,80.18974304343872,-43.611480299896535
1679940402.53761,44.88353250793455,1.3212386703296908,5.078535153498711,12.791218748979196,80.1897430434275,-43.6114559144537
1679940402.870893,44.8835368270207,1.3212453024859923,5.041106796413938,12.79121874896959,80.18974304345375,-43.611426783321335
1679940403.204212,44.88353724843197,1.3212359370493705,5.038115134025647,12.791218748719038,80.18974304351923,-43.61142052884224
1679940403.537497,44.883537723590514,1.321228829509708,5.0512038699139,12.791218748498814,80.1897430435874,-43.61140605262688
1679940403.870748,44.88353607745162,1.321230534483827,5.069652780652836,12.791218748488447,80.18974304361299,-43.61137691674728
1679940404.204092,44.883530373430816,1.3212289035164264,5.08776664737022,12.791218748442821,80.18974304364855,-43.61134832327855
1679940404.537303,44.883527424564576,1.321229879384556,5.096289807555232,12.791218748418485,80.18974304367964,-43.61131935271552
1679940404.870648,44.883523056564584,1.321228805873436,5.094585509297821,12.791218748318858,80.18974304372686,-43.61129270468724
1679940405.204004,44.88352508813815,1.321230193415879,5.091883970179241,12.791218748238853,80.18974304376998,-43.61126517993055
1679940405.537156,44.88352425910902,1.321230582572807,5.092637850016319,12.791218748137867,80.18974304381754,-43.61123860064406
1679940405.870493,47.95918682880042,1.3423404172206597,5.723577724526316,12.79121874808977,80.18974304380345,-43.611209837266145
1679940406.203824,47.959189195016876,1.342342689197789,5.7246525280272555,12.791218747963908,80.18974304377302,-43.611235396479
1679940406.537018,47.95919278250854,1.3423436933971848,5.723959159535003,12.791218747864594,80.18974304373663,-43.61126226033023
1679940406.870439,51.052418650470564,1.2435359897714786,3.4932916805451275,12.791218747694092,80.1897430438651,-43.61127979933648
1679940407.203687,51.05241843488978,1.2435330919894365,3.493556292252103,12.7912187475144,80.18974304394443,-43.61129951288812
1679940407.536868,51.052419824597585,1.2435359631806147,3.5012636676982143,12.791218747251811,80.18974304397885,-43.61129985472908
1679940407.870239,51.052422051801415,1.2435431783123319,3.5053590612980456,12.791218746994408,80.18974304399163,-43.61129313415588
1679940408.203477,51.052416748960354,1.2435373975389235,3.5041235896749807,12.791218746903843,80.18974304407826,-43.61131900288719
1679940408.537066,51.05241430932039,1.2435360565120979,3.5006955927213497,12.791218746701732,80.18974304415242,-43.611336124489284
1679940408.870187,54.09008727902198,1.2746900368036649,4.090939319611696,12.791218746456591,80.18974304425424,-43.61133559162445
1679940409.203393,57.17370228527063,1.2701642725252373,3.954059570862226,12.79121874669914,80.18974304433507,-43.61134339899047
1679940409.536642,60.244701717759355,1.2808365418026397,4.2725861799146685,12.791218746462388,80.18974304436878,-43.61133080497459
1679940409.869916,60.24469696176359,1.2808388690210994,4.284967685729404,12.791218746529601,80.18974304438264,-43.61135909756269
1679940410.203227,60.24469212346677,1.2808370224061534,4.290179389388983,12.79121874673974,80.18974304434305,-43.611376392107886
1679940410.536467,60.2446902857296,1.280837580414271,4.28679693184249,12.79121874691568,80.18974304431937,-43.6113981294909
1679940410.869843,60.24468901644289,1.2808357877009446,4.283480619968315,12.791218747142192,80.18974304427371,-43.6114124633208
1679940411.203054,60.2446914016286,1.2808369276736469,4.285063539019094,12.79121874733423,80.18974304424303,-43.61143235173505
1679940411.536358,60.244691387447524,1.280841642934292,4.285165015860506,12.79121874742539,80.18974304424913,-43.61145984401459
1679940411.869576,63.33003481779117,1.310926320244882,5.277589118454781,12.79121874747736,80.18974304414766,-43.61148636895567
1679940412.203142,63.33003028664248,1.3109235205628738,5.276533430708235,12.79121874744373,80.18974304419287,-43.611457732503986
1679940412.536232,63.3300261152146,1.3109167002001334,5.294501202822535,12.79121874733929,80.1897430442531,-43.61143162400731
1679940412.869516,63.33002587894407,1.3109172675323837,5.313187260534115,12.791218747416083,80.18974304427199,-43.61140366765627
1679940413.202825,66.20719138325353,0.9132819941857246,3.3206310253321774,12.791218747645479,80.18974304421751,-43.61139028975083
1679940413.536038,66.20719579975176,0.9132826987983609,3.3019141381378927,12.791218747907365,80.18974304417885,-43.61138928417667
1679940413.869324,66.20720123071915,0.9132813095143019,3.309608698760542,12.791218748165514,80.1897430441247,-43.61138648696152
1679940414.202707,66.20719922293657,0.9132841144964183,3.302793702214459,12.79121874837414,80.18974304420804,-43.611402089216696
1679940414.53595,66.20719598274886,0.9132821231156221,3.300988580391382,12.79121874863765,80.18974304418929,-43.61140409193339
1679940414.869213,66.20719048861852,0.9132803746510271,3.312911076342258,12.791218748900521,80.18974304415747,-43.611404697482136
1679940415.202593,66.20718661300005,0.913277479766717,3.326403155510863,12.79121874915722,80.1897430440978,-43.61140161559916
1679940415.535778,66.20717912898289,0.9132729777353888,3.332239887761655,12.791218749355599,80.18974304397177,-43.61138786433536
1679940415.869306,66.20717415857646,0.9132661415817926,3.34480730841113,12.79121874956322,80.18974304385044,-43.61137533916437
1679940416.202325,66.20717295521898,0.913270025683546,3.356566704140877,12.791218749800736,80.18974304389394,-43.61138739162604
1679940416.535782,66.20717042790821,0.9132761704566178,3.367284571917501,12.791218749968415,80.18974304399993,-43.61140692481425
1679940416.868941,66.20716109477002,0.9132756446418943,3.3924252465775164,12.79121875021626,80.18974304401992,-43.611417003145796
1679940417.202297,66.20715341979418,0.9132766476379449,3.4154522630471003,12.791218750411657,80.18974304409993,-43.611434758986306
1679940417.535497,69.3364574106017,0.9522114026598665,5.949712624566091,12.791218750563948,80.1897430440202,-43.611412415249426
1679940417.868752,69.33646163291567,0.9522128808639209,5.919516605325872,12.791218750791934,80.18974304406095,-43.61139819213296
1679940418.201977,69.33646739482415,0.952207721265596,5.887561378503758,12.791218750851895,80.18974304419623,-43.61137373304644
1679940418.535357,72.44915761247087,0.9234234226210315,4.30938347501556,12.791218750992657,80.18974304426348,-43.611350021739504
1679940418.868638,72.44915405985346,0.9234177413489035,4.317742421874927,12.791218751195148,80.18974304415879,-43.611365081635356
1679940419.201868,72.44914913953727,0.9234147920693324,4.340590928495067,12.79121875133316,80.18974304412295,-43.61138977371738
1679940419.535235,75.55397212279168,1.0288021331263206,6.836815457699485,12.791218751335625,80.18974304390868,-43.611371977824746
1679940419.868457,78.68374418640472,1.0951560753098455,9.643021527668406,12.791218751255013,80.189743043995,-43.61134569936734
1679940420.201842,78.68374844733157,1.095155415132286,9.633720867247883,12.791218751518308,80.18974304396662,-43.6113454902627
1679940420.535116,78.68375324679667,1.0951537177994641,9.62148634195309,12.791218751779095,80.18974304392817,-43.61134261961007
1679940420.868405,78.68375839646058,1.0951570782758773,9.602465485509711,12.79121875203471,80.18974304394176,-43.61135011367014
1679940421.201652,78.68375608554153,1.0951515368046856,9.6000693995055,12.791218752252357,80.18974304385712,-43.611336193250736
1679940421.534928,78.68375267850176,1.0951460725574564,9.611201690540947,12.791218752489666,80.18974304378442,-43.61132587525692
1679940421.86825,78.68374710297155,1.0951540692750112,9.624078748744399,12.79121875260264,80.1897430438847,-43.61135002487652
1679940422.201523,78.68374527126336,1.0951481044234568,9.646171102739588,12.791218752851433,80.18974304381989,-43.61134289089283
1679940422.53477,78.68374248801183,1.0951426001065188,9.665815148175868,12.791218753101111,80.18974304375483,-43.611336171485576
1679940422.868124,78.68374251909621,1.0951512865218946,9.658662341495676,12.791218753214123,80.18974304385311,-43.61136041576045
1679940423.201384,78.68374041392859,1.0951583917034984,9.640998945473088,12.791218753335421,80.18974304395026,-43.61138421868874
1679940423.534612,78.68374658172213,1.0951579923118675,9.631838934335825,12.791218753598708,80.1897430439218,-43.611383941802075
1679940423.868043,78.68375574335124,1.095154977634002,9.643989885574236,12.791218753861662,80.18974304389022,-43.611383964784736
1679940424.201278,78.68375986631845,1.095151871932975,9.62477302787151,12.791218754104195,80.18974304382427,-43.611374648577595
1679940424.534535,78.68376451525306,1.0951593914040993,9.590016679081053,12.791218754311657,80.18974304388809,-43.611391477988434
1679940424.867804,78.68375537272796,1.0951620783148617,9.574654421212196,12.791218754118447,80.18974304398232,-43.61140869419425
1679940425.201258,78.6837544524581,1.0951619452515153,9.603132433565138,12.791218754368801,80.18974304399934,-43.6114180496484
1679940425.534305,78.68374196373094,1.0951572795210556,9.640416397379335,12.791218754631421,80.18974304397881,-43.61142103804206
1679940425.867649,78.68373302707509,1.095149878275151,9.677703602915363,12.791218754703015,80.18974304385311,-43.61139636110998
1679940426.200903,78.68372588957091,1.0951478526863143,9.698631921928426,12.791218754953114,80.18974304385902,-43.61140595435843
1679940426.534115,78.68373288099018,1.0951563693569313,9.685829448319401,12.791218755165419,80.18974304390777,-43.61142263679121
1679940426.867554,78.68373784966795,1.095156430466103,9.677732926251412,12.791218755426245,80.18974304389707,-43.61142753885019
1679940427.200782,78.68374708992579,1.0951622971231199,9.659461172704278,12.791218755673876,80.18974304391581,-43.6114377062331
1679940427.534161,78.68375273550497,1.095154465296694,9.640407800947262,12.791218755902106,80.18974304383667,-43.61142559831163
1679940427.867364,78.6837513388194,1.0951424213726282,9.639448656791481,12.791218756091617,80.18974304373555,-43.611408337306436
1679940428.200586,78.68374984987483,1.0951283975787276,9.65771528595368,12.791218756264945,80.18974304362607,-43.611389656150656
1679940428.533868,78.68373892110108,1.095124691299654,9.69101269343618,12.791218756525977,80.18974304360574,-43.61139404171225
1679940428.86724,78.68372957798539,1.0951340986324791,9.687964540445018,12.79121875650955,80.1897430437274,-43.611420123387234
1679940429.200531,78.68372349141836,1.0951479252347107,9.697653005436656,12.791218756592162,80.18974304383192,-43.61144553365096
1679940429.533721,78.68373341519899,1.0951452039297207,9.706016786874873,12.791218756853501,80.18974304378919,-43.61144477349762
1679940429.867024,78.68372466148256,1.0951472845832049,9.689773155045101,12.79121875701152,80.18974304386836,-43.611466647456
1679940430.200337,78.68372140984728,1.0951643765668106,9.671060968640495,12.791218756986904,80.1897430439901,-43.61149264402175
1679940430.533576,78.68373266922167,1.095155723205029,9.681364978627514,12.791218757231697,80.18974304391902,-43.611484579872446
1679940430.866886,78.68372582835289,1.095145346032988,9.711310935213005,12.791218757402348,80.189743043805,-43.611465916848985
1679940431.200256,78.68371478112873,1.095143535677459,9.731092098510386,12.791218757563467,80.18974304387766,-43.61148778120978
1679940431.533519,78.68370821713964,1.0951405231788498,9.73368817787483,12.791218757825602,80.18974304384241,-43.61148931015428
1679940431.866726,78.68370259034091,1.09514244768191,9.75341738131556,12.791218758008547,80.18974304390102,-43.61150950525927
1679940432.200022,78.68370755711926,1.0951432400149432,9.758776211733421,12.791218758264653,80.1897430438891,-43.61151682546804
1679940432.533488,78.68369716709786,1.0951457166567549,9.774685637701719,12.79121875843133,80.18974304395488,-43.611538433953754
1679940432.866605,78.68369370217484,1.095145356642013,9.795005572258733,12.791218758655985,80.18974304397807,-43.61155373138617
1679940433.199981,78.68370163754048,1.0951371968089894,9.786964174787185,12.791218758890269,80.18974304389174,-43.61154381352085
1679940433.533209,78.68370597147914,1.095136216082246,9.760857204524925,12.791218759152466,80.18974304385858,-43.611545723604884
1679940433.866471,78.68370599649445,1.0951393853354734,9.743755148534648,12.791218759385902,80.18974304388296,-43.61155928980956
1679940434.19981,78.68370897429071,1.0951366838740335,9.729938628548194,12.79121875964177,80.18974304382559,-43.6115550543115
1679940434.533028,78.68369693445814,1.0951342405891582,9.728168592655221,12.791218759897841,80.18974304381935,-43.611562471095056
1679940434.866478,78.68369803254839,1.0951310799542955,9.752542036726226,12.79121876015123,80.18974304381148,-43.61157092310219
1679940435.199632,78.68368651053663,1.0951291747330332,9.768868103844058,12.791218760388023,80.18974304382606,-43.61158393249962
1679940435.532921,78.68367619691318,1.0951358852957087,9.76937467438699,12.79121876040002,80.18974304394199,-43.61161034838905
1679940435.866247,78.68367119999567,1.0951351169192949,9.767468706312128,12.791218760618563,80.1897430439757,-43.61162647497433
1679940436.199505,78.68366310171845,1.0951301430983065,9.78355341185223,12.79121876085911,80.18974304389232,-43.61161823702527
1679940436.532719,78.68367088741007,1.0951303634059486,9.796237380129783,12.791218761110615,80.18974304388311,-43.6116273364497
1679940436.866068,78.68366973663898,1.0951318581186607,9.791338666608643,12.791218761351155,80.18974304389243,-43.6116395378605
1679940437.199378,78.68367835435578,1.095130678611125,9.77841359706327,12.791218761612818,80.18974304385425,-43.611641227374335
1679940437.532583,78.68368170946648,1.0951273812417577,9.797651810725522,12.791218761873372,80.18974304381494,-43.61164421763596
1679940437.865965,78.68367218064104,1.095120108471219,9.82925710003899,12.79121876211707,80.18974304372999,-43.61163743210845
1679940438.199277,78.68367020450268,1.0951140380431674,9.8611908860306,12.791218762297188,80.18974304361133,-43.61162025984534
1679940438.53257,78.6836690122975,1.095120175152402,9.883651450005477,12.791218762402028,80.18974304369497,-43.61164557667129
1679940438.865756,81.81043474430928,1.117573576399349,11.862917287643732,12.791218762523696,80.18974304372861,-43.61161981880805
1679940439.199137,81.81041839361681,1.117567392839173,11.821597529143956,12.79121876226969,80.18974304377697,-43.61162620213289
1679940439.532309,81.8104278971024,1.1175490830310018,11.815522795504629,12.791218762233052,80.1897430438775,-43.61159932292553
1679940439.865676,81.81046613438555,1.1175365740625625,11.864710251814314,12.79121876235397,80.18974304391556,-43.61157359561992
1679940440.198848,81.81046649594231,1.1175232340451793,11.918025172762082,12.791218762432385,80.18974304398017,-43.61154651205516
1679940440.532121,81.81045995233585,1.1175027588397843,11.967932968808887,12.791218762407816,80.18974304408627,-43.61151971800858
1679940440.865492,81.81044450098862,1.1174775223910731,12.045032214527811,12.791218762330349,80.18974304420836,-43.611495044915536
1679940441.198777,81.81044116465563,1.1174688620612292,12.148638402004543,12.791218762572365,80.18974304416429,-43.61148417107423
